stationcode,name,capacity,numdocksavailable,numbikesavailable,lat,lon,date_extraction
14111,Cassini - Denfert-Rochereau,25,19,5,48.837525839067,2.3360354080796,2026-03-24 15:57:01.013498
14014,Jourdan - Stade Charléty,60,51,8,48.819428333369,2.3433353751898,2026-03-24 15:57:01.013498
11104,Charonne - Robert et Sonia Delaunay,20,18,2,48.855907555969,2.3925706744194,2026-03-24 15:57:01.013498
6003,Saint-Sulpice,21,1,20,48.85165383178419,2.3308077827095985,2026-03-24 15:57:01.013498
30002,Jean Rostand - Paul Vaillant Couturier,40,24,15,48.908168131015,2.4530601033354,2026-03-24 15:57:01.013498
17041,Guersant - Gouvion-Saint-Cyr,36,14,18,48.88287775178599,2.287667370814871,2026-03-24 15:57:01.013498
15047,Morillons - Dantzig,52,49,3,48.83310149953933,2.299380004405976,2026-03-24 15:57:01.013498
17026,Jouffroy d'Abbans - Wagram,40,37,3,48.881973298352,2.301132157445,2026-03-24 15:57:01.013498
6021,Beaux-Arts - Bonaparte,20,0,19,48.856451985396,2.3348518833518,2026-03-24 15:57:01.013498
42208,Place des Marseillais,35,29,5,48.826605522232,2.4059119927899,2026-03-24 15:57:01.013498
5016,Thouin - Cardinal Lemoine,17,2,15,48.845047166615,2.3494647851273,2026-03-24 15:57:01.013498
21010,Silly - Galliéni,25,18,7,48.835583838706,2.2325500845909,2026-03-24 15:57:01.013498
13101,Croulebarde - Corvisart,34,29,4,48.830981659316855,2.3481646925210953,2026-03-24 15:57:01.013498
14108,Le Brix et Mesmin - Jourdan,21,19,2,48.82234096593411,2.327861653302471,2026-03-24 15:57:01.013498
21108,Mairie de Clichy,51,44,7,48.903653634661,2.3059353232384,2026-03-24 15:57:01.013498
2022,Saint-Fiacre - Poissonière,35,3,32,48.870828911558,2.3459213599563,2026-03-24 15:57:01.013498
17044,Porte de Saint-Ouen - Bessières,42,37,5,48.89792240854517,2.32851451022192,2026-03-24 15:57:01.013498
21216,Louis Lejeune - Barbès,25,22,1,48.81807418981508,2.3267009854316716,2026-03-24 15:57:01.013498
15068,Général Martial Valin - Pont du Garigliano,16,6,10,48.83823094269141,2.270506024360657,2026-03-24 15:57:01.013498
8103,Artois - Berri,37,8,29,48.873935212408,2.306425832212,2026-03-24 15:57:01.013498
31028,Raspail Barbès,28,17,11,48.8529945,2.4247387,2026-03-24 15:57:01.013498
44017,Jules Guesde - Pont du Port à l'Anglais,30,17,12,48.79628807093802,2.417212128639221,2026-03-24 15:57:01.013498
16118,Michel-Ange - Parent de Rosan,26,18,8,48.840579923690115,2.2584119439125065,2026-03-24 15:57:01.013498
8048,Marceau - Chaillot,21,4,16,48.868834023334,2.2986030816809,2026-03-24 15:57:01.013498
14013,Liard - Amiral Mouchez,28,22,6,48.8214169,2.342167,2026-03-24 15:57:01.013498
15112,Vigée-Lebrun - Anselme Payen,24,22,2,48.838683941628375,2.3110422492027287,2026-03-24 15:57:01.013498
13030,Italie - Tolbiac,21,15,5,48.82557229464416,2.3576171323657036,2026-03-24 15:57:01.013498
8016,Square Louis XVI,29,0,29,48.87320440102894,2.323658830743138,2026-03-24 15:57:01.013498
10115,Granges aux Belles,27,22,3,48.8761373390584,2.3680844979417,2026-03-24 15:57:01.013498
10029,Dunkerque - Rocroy,24,18,3,48.880726,2.351464,2026-03-24 15:57:01.013498
10161,Gare de l'Est - Faubourg-Saint-Martin,32,29,3,48.875642647477,2.3594588041306,2026-03-24 15:57:01.013498
41303,Gare de Nogent-le-Perreux,32,5,25,48.83842553348809,2.493693307042122,2026-03-24 15:57:01.013498
9038,Douai - Bruxelles,27,19,4,48.88320784122797,2.3308449949028507,2026-03-24 15:57:01.013498
5005,Gay Lussac - Saint-Jacques,42,12,30,48.844730256132,2.3419239448664,2026-03-24 15:57:01.013498
8053,Place Georges Guillaumin,29,20,8,48.874750203957,2.301771435326,2026-03-24 15:57:01.013498
9014,Faubourg Montmartre - La Fayette,35,0,34,48.875254549053,2.3408536612988,2026-03-24 15:57:01.013498
9106,Boudreau - Auber,28,1,25,48.87219,2.329423,2026-03-24 15:57:01.013498
19105,Ambroise Rendu - Porte Brunet,17,16,1,48.883667,2.395733,2026-03-24 15:57:01.013498
51006,Lieutenant Colonel Prudhon - Repos,26,26,0,48.946800700149,2.2380727982588,2026-03-24 15:57:01.013498
17004,Legendre - Clichy,40,33,6,48.88896161855884,2.322528975094376,2026-03-24 15:57:01.013498
26002,Redoute - Les Courtilles,40,22,16,48.929867194519,2.2836696356535,2026-03-24 15:57:01.013498
19026,Place de Rhin et Danube,30,28,1,48.88192765861766,2.392586767673493,2026-03-24 15:57:01.013498
16039,Exelmans - Versailles,49,33,16,48.84097491091973,2.264390252530575,2026-03-24 15:57:01.013498
45003,11 Novembre 1918 - 8 Mai 1945,36,13,23,48.80889533774377,2.5382421165704727,2026-03-24 15:57:01.013498
11002,Roquette - Thiéré,23,12,11,48.85507930579506,2.3733686318721463,2026-03-24 15:57:01.013498
8034,Berri - Haussmann,49,6,41,48.874746047357135,2.3082953318953514,2026-03-24 15:57:01.013498
10010,Place Jacques Bonsergent,33,17,14,48.870948218595,2.3612049221992,2026-03-24 15:57:01.013498
11023,Saint-Maur - Roquette,46,42,3,48.858688774063,2.3835539945715,2026-03-24 15:57:01.013498
16108,Sablons - Georges Mandel,38,35,3,48.863875,2.28189,2026-03-24 15:57:01.013498
10016,Récollets - Square Villemin,17,15,1,48.875034655883944,2.359801238597928,2026-03-24 15:57:01.013498
31009,Place Du Général De Gaulle,26,23,3,48.8687591,2.4329931,2026-03-24 15:57:01.013498
41302,Charles de Gaulle - Beauté,49,47,0,48.83649602312711,2.479562651149885,2026-03-24 15:57:01.013498
14020,Cimetière de Montrouge,58,57,1,48.821466904768,2.3215785772007,2026-03-24 15:57:01.013498
33017,Anatole France - President Roosevelt,29,19,8,48.9155156,2.3814103,2026-03-24 15:57:01.013498
15042,Henry Farman,16,0,16,48.83372430280548,2.2713854536414146,2026-03-24 15:57:01.013498
33102,Gabriel Péri - Francisco Ferrer,18,13,2,48.88633710236977,2.407338917255402,2026-03-24 15:57:01.013498
21212,Marne - Germain Dardan,22,17,5,48.81217465201,2.3035024699104,2026-03-24 15:57:01.013498
44006,Concorde - Stalingrad,35,28,7,48.7985844,2.3821302,2026-03-24 15:57:01.013498
19120,Carducci - Place Hannah Arendt,27,26,1,48.877436681515796,2.3860743641853337,2026-03-24 15:57:01.013498
11113,Richard Lenoir - Republique,58,31,27,48.8667175,2.3692541,2026-03-24 15:57:01.013498
15104,Hôpital Européen Georges Pompidou,78,11,65,48.837695319163,2.2753742337227,2026-03-24 15:57:01.013498
43008,Fontenay - Libération,25,23,1,48.847803063647,2.4451419711113,2026-03-24 15:57:01.013498
14138,Porte de Vanves,32,22,10,48.828012849445,2.3056878894567,2026-03-24 15:57:01.013498
41209,Cimetière de Fontenay-sous-Bois,15,15,0,48.84706173362218,2.4787822365760808,2026-03-24 15:57:01.013498
21312,Lucie Aubrac - Fort,30,29,1,48.818144834008976,2.271184623241425,2026-03-24 15:57:01.013498
14008,Mouton Duvernet - Général Leclerc,28,22,6,48.831632518293,2.3293121159077,2026-03-24 15:57:01.013498
8017,Rocher - Laborde,65,30,34,48.87590240712654,2.322616316378116,2026-03-24 15:57:01.013498
15054,Lecourbe - Jean Maridor,19,16,3,48.83796366147599,2.2877392172813416,2026-03-24 15:57:01.013498
15106,Grenelle - Violet,35,1,31,48.84993035512154,2.294612042605877,2026-03-24 15:57:01.013498
5124,Erasme - Ulm,24,15,9,48.84264375274712,2.3445946723222733,2026-03-24 15:57:01.013498
22406,Guy Môquet - Etienne Dolet,23,21,2,48.81527009991819,2.298078276995073,2026-03-24 15:57:01.013498
1020,Cambon - Rivoli,40,1,37,48.866143390992,2.3251800647137,2026-03-24 15:57:01.013498
31102,Boissière - Etienne Dolet,21,16,3,48.876111,2.4677312,2026-03-24 15:57:01.013498
2111,Chabanais - Petits Champs,30,2,27,48.86703740186721,2.336716018617153,2026-03-24 15:57:01.013498
18022,Marcadet - Barbès,37,33,2,48.890451120965,2.3490573929687,2026-03-24 15:57:01.013498
10042,Enghien - Faubourg Poissonnière,33,0,31,48.872420063053,2.3483952362828,2026-03-24 15:57:01.013498
42014,Place Marcel Cachin,32,9,21,48.81411442356866,2.39090770483017,2026-03-24 15:57:01.013498
21005,Hôtel de Ville de Boulogne Billancourt,26,15,10,48.834958851668,2.2416803240776,2026-03-24 15:57:01.013498
8028,Arsène Houssaye - Champs-Elysées,0,0,0,48.873409276267,2.2977904602885,2026-03-24 15:57:01.013498
15133,Saint Lambert - Blomet,27,21,6,48.83659148147257,2.2930556908249855,2026-03-24 15:57:01.013498
15110,Place Robert Guillemard,24,5,19,48.836191728066666,2.2811267160086417,2026-03-24 15:57:01.013498
44013,Edouard Tremblay - Julian Grimaux,30,26,4,48.781383825117,2.3723508417606,2026-03-24 15:57:01.013498
20131,Repos - Cimetière du Père Lachaise,33,32,1,48.859358523593,2.3896131366845,2026-03-24 15:57:01.013498
35010,Hoche - Jean Lolive,24,11,11,48.891102392008,2.4028435349464,2026-03-24 15:57:01.013498
21015,Nationale - Place Jules Guesde,23,11,12,48.82753962462998,2.2416052222251897,2026-03-24 15:57:01.013498
41202,Gare Rer de Fontenay sous Bois,61,55,6,48.8436279,2.4630465,2026-03-24 15:57:01.013498
42021,Raspail - Manufacture des Oeillets,32,27,5,48.8094458,2.3903009,2026-03-24 15:57:01.013498
25003,Henri Ste-Claire Déville - Paul Héroult,24,5,19,48.892663,2.172411,2026-03-24 15:57:01.013498
31003,Paris - Emile Zola,30,23,7,48.854898095789295,2.4186685681343083,2026-03-24 15:57:01.013498
9116,Victoire - Chaussée d'Antin,24,3,17,48.875065791004396,2.3316738009452824,2026-03-24 15:57:01.013498
6025,Assas - Rennes,32,2,29,48.8492084999386,2.32851454623001,2026-03-24 15:57:01.013498
11030,Oberkampf - République,24,19,4,48.86531608707,2.37611478491,2026-03-24 15:57:01.013498
11039,Richard Lenoir - Jean-Pierre Timbaud,36,28,6,48.865804276686,2.3693370749669,2026-03-24 15:57:01.013498
17013,Legendre - Dulong,23,20,3,48.885325169402904,2.316423766314984,2026-03-24 15:57:01.013498
23006,Jules Guesde - Alsace,25,12,9,48.890566275506,2.2950777411461,2026-03-24 15:57:01.013498
17105,Place Madeleine Daniélou,42,37,5,48.883498,2.282015,2026-03-24 15:57:01.013498
18009,Jean-François Lépine - Stephenson,22,18,3,48.88611466796807,2.356855627529275,2026-03-24 15:57:01.013498
19032,Villette - Belleville,48,40,5,48.8726877314,2.376461327076,2026-03-24 15:57:01.013498
16030,Place de Barcelone - Mirabeau,55,18,37,48.847623027364,2.2735664248466,2026-03-24 15:57:01.013498
43005,Gare RER de Vincennes,51,27,22,48.847563015126106,2.433383166790009,2026-03-24 15:57:01.013498
22003,Beffroy,26,0,25,48.886591074488,2.2613945603371,2026-03-24 15:57:01.193679
21008,Victor Hugo - Galliéni,34,19,13,48.838020154411,2.2460845112801,2026-03-24 15:57:01.193679
8056,Beaujon - Wagram,29,18,11,48.875352455985,2.2964416444302,2026-03-24 15:57:01.193679
24001,Arche - Léonard de Vinci,28,10,15,48.89790972494496,2.2383723043644914,2026-03-24 15:57:01.193679
32302,Chemin Vert - Fraternité,20,20,0,48.877141208359035,2.4461565166711807,2026-03-24 15:57:01.193679
10014,Marseille - Beaurepaire,55,22,32,48.871624306962985,2.3639265082738348,2026-03-24 15:57:01.193679
11035,Parmentier - Abel Rabaud,52,46,5,48.86921273836114,2.371688821240712,2026-03-24 15:57:01.193679
22006,Pierret - Madrid,28,0,28,48.882976576876565,2.260125767248034,2026-03-24 15:57:01.193679
21301,Saint-Vincent - Verdun,34,16,17,48.819211549234495,2.254007756710053,2026-03-24 15:57:01.193679
42302,Aristide Briand - Gare de Bagneux,22,18,1,48.79387269664978,2.321148812770844,2026-03-24 15:57:01.193679
19029,Seine - Flandre,19,17,1,48.886785741479684,2.3746193200349808,2026-03-24 15:57:01.193679
9032,Mathurins - Auber,36,2,32,48.872988840744,2.3294984212276,2026-03-24 15:57:01.193679
19016,Hautpoul - Jean Jaurès,32,31,0,48.886393679436,2.3865414544355,2026-03-24 15:57:01.193679
11042,Grand Prieuré - Crussol,49,19,30,48.864660627935,2.3692265531829,2026-03-24 15:57:01.193679
32026,Leroy des Barres - Médiathèque,26,10,14,48.928253687082,2.3681719727966,2026-03-24 15:57:01.193679
9005,Square d'Anvers,33,28,2,48.882633484311,2.3448844062122,2026-03-24 15:57:01.193679
8025,Miromesnil - La Boétie,35,3,31,48.873722412917,2.3158480972052,2026-03-24 15:57:01.193679
7102,Mairie du 7ème,48,1,47,48.8577967,2.3192664,2026-03-24 15:57:01.193679
13002,Arago - Glacière,27,23,4,48.83486054775774,2.3445770524322067,2026-03-24 15:57:01.193679
43003,Hôpital Bégin,26,15,11,48.84571672113,2.4272462725639,2026-03-24 15:57:01.193679
42504,Gare RER de Gentilly,30,27,3,48.814280450380224,2.3410347104072575,2026-03-24 15:57:01.193679
26013,Quai du docteur Dervaux,26,15,11,48.910482,2.297998,2026-03-24 15:57:01.193679
42015,Place Jean Ferrat,25,14,11,48.8184945213025,2.3744174838066106,2026-03-24 15:57:01.193679
32016,Place de la Porte de Paris,40,29,11,48.93009363207303,2.3564037680625916,2026-03-24 15:57:01.193679
15201,Place Amédée Gordini - Lefebvre,38,23,15,48.83061737745,2.2920634208276,2026-03-24 15:57:01.193679
11004,Charonne - Faubourg Saint-Antoine,34,20,12,48.852191909696,2.3740932717919,2026-03-24 15:57:01.193679
92008,Hôtel de Ville de Nanterre,38,23,14,48.892371898250424,2.205548956990242,2026-03-24 15:57:01.193679
19125,Place de l'Édit de Nantes,30,16,13,48.88879,2.3785,2026-03-24 15:57:01.193679
12009,Charenton - Diderot,18,1,15,48.846171461187,2.3793068155646,2026-03-24 15:57:01.193679
19205,Simon Bolivar - Henri Turot,23,18,3,48.877475489801,2.3739709492211,2026-03-24 15:57:01.193679
4015,Mairie du 4ème,44,3,38,48.855949910497,2.3563823103905,2026-03-24 15:57:01.193679
31203,Henri Barbusse,30,12,17,48.932092978246,2.3982878482409,2026-03-24 15:57:01.193679
19008,Flandre - Alphonse Karr,26,19,5,48.89465,2.381868,2026-03-24 15:57:01.193679
9021,Saint Georges - d'Aumale,23,15,5,48.87778639599673,2.337429821491241,2026-03-24 15:57:01.193679
12027,Montgallet - Charenton,16,9,7,48.842647778701,2.3861649278137,2026-03-24 15:57:01.193679
21313,Guynemer - Séverine,26,4,22,48.83091743371036,2.2790706530213356,2026-03-24 15:57:01.193679
26007,Square Gilbert Thomain,20,14,3,48.90717373809284,2.2695400938391685,2026-03-24 15:57:01.193679
15025,Dupleix - du Guesclin,47,20,26,48.85147910413369,2.296709530055523,2026-03-24 15:57:01.193679
35018,Ancien Canal - Hélène Brion,23,16,4,48.89484799296163,2.4188338592648506,2026-03-24 15:57:01.193679
17011,Fragonard - Porte de Clichy,56,41,12,48.894155633419,2.3143893107772,2026-03-24 15:57:01.193679
17045,Place des Ternes.,46,25,17,48.878438631226516,2.297727763652802,2026-03-24 15:57:01.193679
11115,Montreuil - Gonnet,24,18,5,48.850500564921,2.3890856287864,2026-03-24 15:57:01.193679
7015,Varenne,47,4,43,48.857202661803,2.3152771219611,2026-03-24 15:57:01.193679
16121,Jardin d'Acclimatation,33,19,14,48.878772242510465,2.270772233605385,2026-03-24 15:57:01.193679
23001,Paul Vaillant Couturier - Chaptal,39,6,28,48.893479576183,2.2775253653526,2026-03-24 15:57:01.193679
15010,Square Cambronne,59,22,36,48.84756654526,2.3025691509247,2026-03-24 15:57:01.193679
13045,Jean Colly - Tolbiac,36,34,2,48.827817291597846,2.3705490678548813,2026-03-24 15:57:01.193679
19115,Porte de la Villette,27,22,5,48.89835196548483,2.386150136590004,2026-03-24 15:57:01.193679
32010,Place aux Étoiles,40,10,29,48.91835629408464,2.3523425683379173,2026-03-24 15:57:01.193679
16018,Flandrin - Henri Martin,18,15,3,48.8643275,2.2724174,2026-03-24 15:57:01.193679
12034,Pirogues de Bercy - Libourne,49,7,41,48.832308,2.38637,2026-03-24 15:57:01.193679
19044,Grands Moulins de Pantin,50,25,22,48.89738369720229,2.3959985375404362,2026-03-24 15:57:01.193679
24002,Gare de Courbevoie,35,27,5,48.8993867,2.2506506,2026-03-24 15:57:01.193679
41404,Carnot - Pâquerettes,26,23,1,48.79592939432515,2.4261841177940373,2026-03-24 15:57:01.193679
7009,Assemblée Nationale,76,1,73,48.861411014652,2.3201214185208,2026-03-24 15:57:01.193679
10152,Gare du Nord - Place de Valenciennes,44,29,10,48.879089,2.354235,2026-03-24 15:57:01.193679
42707,Place Jean-Baptiste Clément,24,21,3,48.81240466867336,2.3617091774940495,2026-03-24 15:57:01.193679
5119,Jussieu - Guy de la Brosse,40,14,26,48.845665,2.355653,2026-03-24 15:57:01.193679
8055,Courcelles - Place des Ternes,31,25,3,48.878199928923124,2.2992860188665043,2026-03-24 15:57:01.193679
21502,Verdun - Place Henri IV,26,16,9,48.870797375639214,2.2277003154158592,2026-03-24 15:57:01.193679
12024,Gare de Bercy,35,27,7,48.839794573906,2.3826066032052,2026-03-24 15:57:01.193679
16129,Ceinture du Lac Inferieure - Saint-Cloud,42,28,13,48.86218070933143,2.2617871686816216,2026-03-24 15:57:01.193679
20113,Piat - Parc de Belleville,21,20,1,48.87195626635528,2.384981390278095,2026-03-24 15:57:01.193679
6030,Assas - Vaugirard,35,5,28,48.848274111398,2.3292413726449,2026-03-24 15:57:01.193679
23802,Raymond Poincaré - Allée de la Marche,23,22,1,48.838634069623,2.1724102640451,2026-03-24 15:57:01.193679
20036,Ménilmontant - Pelleport,32,28,2,48.870682633845,2.3989596023316,2026-03-24 15:57:01.193679
19019,Petit - Manin,22,17,3,48.886506875343,2.3938155401308,2026-03-24 15:57:01.193679
17018,Parc Monceau,18,10,7,48.881077914129,2.3095492646098,2026-03-24 15:57:01.193679
10005,Petites Ecuries - Faubourg Poissonnière,17,6,10,48.87397217237368,2.348388757504776,2026-03-24 15:57:01.193679
26001,Gare d'Asnières sur Seine,24,1,21,48.90636459217474,2.2835066914558415,2026-03-24 15:57:01.193679
5026,Pascal - Claude Bernard,49,5,43,48.839061952159746,2.3499782010912895,2026-03-24 15:57:01.193679
31702,Pierre et Marie Curie - Julien Grimau,18,15,2,48.870714014863225,2.424097023904324,2026-03-24 15:57:01.193679
7004,Raspail - Varenne,18,1,15,48.853147816545,2.3263905197382,2026-03-24 15:57:01.193679
21013,Pierre Grenier - Pont de Billancourt,21,12,9,48.8258020742942,2.2487989068031315,2026-03-24 15:57:01.193679
21111,Professeur René Leriche - Général Leclerc,50,29,18,48.90782845483013,2.307887971401215,2026-03-24 15:57:01.193679
11114,Ledru-Rollin - Charonne,32,19,11,48.85345855607243,2.3772463581947094,2026-03-24 15:57:01.193679
7014,Saint-François-Xavier,42,34,8,48.85154484769,2.3146149516106,2026-03-24 15:57:01.193679
5002,Sommerard - Saint-Jacques,34,1,33,48.850310432924,2.3450158352986,2026-03-24 15:57:01.193679
34002,Capitaine Glarner - Gabriel Péri,27,16,10,48.902449900418745,2.3304807533425724,2026-03-24 15:57:01.193679
14139,Pierre Larousse - Raymond Losserand,30,27,3,48.83059564231877,2.3119183257222176,2026-03-24 15:57:01.193679
11101,Charles Delescluze,49,17,32,48.85242200848887,2.380632497370243,2026-03-24 15:57:01.193679
14130,Jonquoy - Didot,30,24,2,48.82890454823947,2.31648076325655,2026-03-24 15:57:01.193679
10015,Lucien Sampaix - Récollets,46,36,10,48.874330377560476,2.3621229082345963,2026-03-24 15:57:01.193679
12011,Charenton - Place du Col Bourgoin,35,16,18,48.844867319554,2.3825789350545,2026-03-24 15:57:01.193679
6103,Mézières - Rennes,55,1,54,48.85023459321703,2.3303819820284843,2026-03-24 15:57:01.193679
20021,Indre - Prairies,38,35,2,48.86254398506782,2.403290458023548,2026-03-24 15:57:01.193679
6018,Michelet - Assas,18,0,16,48.842741502832,2.3350211977959,2026-03-24 15:57:01.193679
21105,Morice - Général Leclerc,25,20,5,48.90245471981591,2.3128929734230046,2026-03-24 15:57:01.193679
21032,Sèvres-Gallieni,27,2,25,48.837809408957,2.2281519323587,2026-03-24 15:57:01.193679
19109,Tanger - Place du Maroc,19,17,2,48.8862524447104,2.3689296841621403,2026-03-24 15:57:01.193679
31019,Vincennes - Douy-Delcupe,38,32,6,48.85493692155721,2.436049282550812,2026-03-24 15:57:01.193679
32014,Place du Cornillon - Stade de France,34,16,17,48.92540695835961,2.3644426837563515,2026-03-24 15:57:01.193679
17124,Porte de Saint-Ouen - Henri Huchard,26,19,6,48.898708366365064,2.3295360803604126,2026-03-24 15:57:01.193679
44012,Génie - Mozart,19,17,2,48.794902381218904,2.3734183609485626,2026-03-24 15:57:01.193679
2009,Filles Saint-Thomas - Place de la Bourse,58,2,53,48.868899890853,2.3397543845203,2026-03-24 15:57:01.193679
22101,Gare Routière de Saint Cloud,31,3,27,48.84288183896324,2.222245037555695,2026-03-24 15:57:01.193679
44102,Verdun - Adrien Damalix,26,23,2,48.8222334178559,2.4215328320860863,2026-03-24 15:57:01.193679
9115,Milton - Manuel,22,18,2,48.878249,2.341181,2026-03-24 15:57:01.193679
16032,Eglise d'Auteuil,21,13,7,48.84749841771691,2.26848387135299,2026-03-24 15:57:01.193679
21003,Jean Jaurès - Jean Baptiste Clément,39,21,16,48.84576261454011,2.2369650006294255,2026-03-24 15:57:01.193679
18025,Mairie du 18ème,40,39,1,48.892939296937605,2.3445510864257812,2026-03-24 15:57:01.337873
17122,Bridaine - Lamandé,29,26,2,48.8862074,2.3206239,2026-03-24 15:57:01.337873
20027,Porte de Ménilmontant,15,14,0,48.8691543609174,2.40932246879487,2026-03-24 15:57:01.337873
19040,Belleville - Télégraphe,41,41,0,48.8756045,2.3995549,2026-03-24 15:57:01.337873
18029,Emile Blemont - Poteau,39,36,2,48.8943782,2.3415122,2026-03-24 15:57:01.337873
20118,Orteaux - Mouraud,24,24,0,48.85558642847872,2.408762907764669,2026-03-24 15:57:01.337873
9117,Bellefond - Maubeuge,31,29,0,48.878255397645,2.3452642187476,2026-03-24 15:57:01.337873
14002,Edgar Quinet - Raspail,46,36,9,48.83940266673835,2.32971478253603,2026-03-24 15:57:01.337873
15035,Place Etienne Pernet,43,31,11,48.84243457133779,2.2921819612383847,2026-03-24 15:57:01.337873
18113,Lepic - Armée d'Orient,24,24,0,48.887536403814,2.3343077301979,2026-03-24 15:57:01.337873
34010,Hôtel de Ville de Saint-Ouen,48,33,13,48.911380185786,2.3340076807601,2026-03-24 15:57:01.337873
17046,Mac-Mahon - Brey,25,16,9,48.87753208413,2.2945125360529,2026-03-24 15:57:01.337873
11041,Square Saint-Ambroise,43,36,6,48.860934,2.375841,2026-03-24 15:57:01.337873
31703,Sadi Carnot - François Mitterrand,27,27,0,48.87532687671517,2.4241617321968083,2026-03-24 15:57:01.337873
35003,Gabrielle Josserand - Edouard Vaillant,25,9,10,48.90271566255436,2.3933270573616032,2026-03-24 15:57:01.337873
31025,Paul Signac - Aristide Briand,35,32,3,48.869502621564,2.450226098299,2026-03-24 15:57:01.337873
15031,Théâtre - Lourmel,53,14,36,48.8482070397636,2.2898658737540245,2026-03-24 15:57:01.337873
21014,Hameau Fleuri - Marché,22,12,7,48.831448892608314,2.2412404417991643,2026-03-24 15:57:01.337873
5121,Square René Viviani - Montebello,47,3,43,48.851904891406,2.3478421568871,2026-03-24 15:57:01.337873
11006,Ledru-Rollin - Place du Père Chaillet,37,29,8,48.856433706943704,2.379020587761426,2026-03-24 15:57:01.337873
19127,Aubervilliers - Curial,23,14,3,48.89088305227546,2.3688579350709915,2026-03-24 15:57:01.337873
16015,Bassano -  Iéna,15,4,11,48.868144510482075,2.296149600985935,2026-03-24 15:57:01.337873
9026,Jean-Baptiste Pigalle - La Bruyere,17,11,5,48.87939826447722,2.333709173337285,2026-03-24 15:57:01.337873
11010,Boulets - Faubourg Saint-Antoine,43,38,5,48.849259262115,2.3917546141943,2026-03-24 15:57:01.337873
16122,Route de la Muette - Porte de Neuilly,50,42,8,48.8798926,2.2587671,2026-03-24 15:57:01.337873
15002,Maine - Antoine Bourdelle,17,15,1,48.84308531746595,2.320263946784738,2026-03-24 15:57:01.337873
23007,Président Wilson - Jean Jaures,27,18,8,48.89034054052266,2.2920683026313786,2026-03-24 15:57:01.337873
32015,Gare RER de Saint-Denis,40,24,15,48.93554324248177,2.3471488058567047,2026-03-24 15:57:01.337873
16027,Mozart - Jasmin,62,55,7,48.85286124871689,2.268483570651513,2026-03-24 15:57:01.337873
16112,Chernoviz - Raynouard,37,33,3,48.8569864146289,2.282173218142987,2026-03-24 15:57:01.337873
42703,Fontainebleau - Edmond Michelet,45,43,2,48.80956436844049,2.3626908659935,2026-03-24 15:57:01.337873
20201,Eugène Reisz - Davout,20,19,1,48.85631874632638,2.410396970808506,2026-03-24 15:57:01.337873
13046,Eugène Oudiné - Dessous Des Berges,44,8,35,48.8256423,2.3750226,2026-03-24 15:57:01.337873
15003,Gare Montparnasse - Vaugirard,66,63,2,48.8418071798797,2.31951002690117,2026-03-24 15:57:01.337873
17022,Pereire - Place de Wagram,46,45,1,48.887070607581215,2.304111124531457,2026-03-24 15:57:01.337873
7020,Champ de Mars - Cler,40,9,30,48.856691550115315,2.306646779179573,2026-03-24 15:57:01.337873
10036,Aqueduc - Villette,28,22,6,48.883886063895,2.367198803315,2026-03-24 15:57:01.337873
23304,Mairie de Sceaux,33,1,29,48.778916905132,2.2887361764861,2026-03-24 15:57:01.337873
12161,Diderot - Reuilly,44,13,28,48.847208456061,2.3861273378134,2026-03-24 15:57:01.337873
9101,Cadet - La Fayette,19,6,13,48.875601632672,2.3435704037547,2026-03-24 15:57:01.337873
18017,Caulaincourt - Place Constantin Pecqueur,44,40,3,48.889677905028,2.3381787144261,2026-03-24 15:57:01.337873
19041,Belleville - Pyrénées,42,38,2,48.8741908,2.3860039,2026-03-24 15:57:01.337873
11043,Place Pasdeloup,21,12,8,48.862654215631,2.3670325062844,2026-03-24 15:57:01.337873
1117,Pont Neuf - Rivoli,27,2,25,48.860089892617,2.344057559967,2026-03-24 15:57:01.337873
13103,Hôpital Pitié Salpêtrière,50,40,10,48.8377016,2.3604946,2026-03-24 15:57:01.337873
15059,Parc André Citroën,65,40,25,48.840639944297,2.2780618071556,2026-03-24 15:57:01.337873
31704,Jeanne Hornet - Girardot,29,27,0,48.873802681432146,2.427820265293122,2026-03-24 15:57:01.337873
32603,Calmette,32,27,5,48.88104925098552,2.424993216991425,2026-03-24 15:57:01.337873
23403,Chateau,22,8,13,48.774661399959,2.3135878035462,2026-03-24 15:57:01.337873
23903,Stade Gaston Bouillant,30,6,24,48.939958667023,2.3279571813836,2026-03-24 15:57:01.337873
6027,Blaise-Desgoffe - Vaugirard,32,19,12,48.846128877747,2.3242672160268,2026-03-24 15:57:01.337873
45001,Hôtel de Ville de Champigny sur Marne,21,6,15,48.813810628405,2.5096759200096,2026-03-24 15:57:01.337873
7101,Raspail - Chomel,49,4,44,48.852233164303,2.3266580700874,2026-03-24 15:57:01.337873
18208,Tourlaque - Damrémont,16,13,0,48.887912943261,2.3328311485014,2026-03-24 15:57:01.337873
7016,Surcouf - Université,58,16,39,48.861273016278,2.3094535509142,2026-03-24 15:57:01.337873
12108,Bercy.,66,38,26,48.839966914994,2.3788625746965,2026-03-24 15:57:01.337873
21311,Parvis Corentin Celton,55,5,49,48.827472525227,2.2784319519997,2026-03-24 15:57:01.337873
31013,Centenaire - Sorins,45,32,12,48.85853523359734,2.4273508787155156,2026-03-24 15:57:01.337873
17016,Brochant - Square des Batignolles,31,20,8,48.88818698581028,2.316861143151153,2026-03-24 15:57:01.337873
20202,Dupont de l'Eure - Gambetta,31,29,2,48.8679385,2.4003649,2026-03-24 15:57:01.337873
11003,Keller - La Roquette,34,17,16,48.8555508,2.3752778,2026-03-24 15:57:01.337873
15020,Mairie du 15ème,46,46,0,48.8417762,2.2986539,2026-03-24 15:57:01.337873
13113,Vistule - Choisy,33,22,10,48.82365543660611,2.3615723848342896,2026-03-24 15:57:01.337873
20017,Saint-Blaise - Mouraud,27,24,3,48.85696177597818,2.40869477391243,2026-03-24 15:57:01.337873
23008,Hôtel de Ville de Levallois Perret,26,10,16,48.89314451997415,2.2888818383216862,2026-03-24 15:57:01.337873
6014,Pont de Lodi - Dauphine,23,2,19,48.855296898603285,2.339947307565249,2026-03-24 15:57:01.337873
14116,Romain Rolland,25,20,5,48.820215229662765,2.3234144234418346,2026-03-24 15:57:01.337873
7026,Place de Finlande,25,2,23,48.862408335967,2.3113624379039,2026-03-24 15:57:01.337873
1016,Thérèse - Opéra,25,0,24,48.866483514509,2.3344334212238,2026-03-24 15:57:01.337873
8015,Roquépine - Malesherbes,53,3,50,48.873450733908,2.3204044997692,2026-03-24 15:57:01.337873
5019,Poissy - Saint-Germain,25,0,25,48.84969649427,2.3529685288668,2026-03-24 15:57:01.337873
10164,Claude Vellefaux - Sambre et Meuse,34,31,2,48.875022,2.370478,2026-03-24 15:57:01.337873
11107,Faidherbe - Dahomey,44,7,33,48.851358329771806,2.383823134795429,2026-03-24 15:57:01.337873
20103,Le Vau - Maurice Bertaux,25,25,0,48.86803439043193,2.411030612453627,2026-03-24 15:57:01.337873
2014,Daunou - Louis le Grand,32,1,30,48.869113,2.332515,2026-03-24 15:57:01.337873
4109,Mornay - Sully,15,1,13,48.84970399548416,2.364460788667202,2026-03-24 15:57:01.337873
3101,Porte Saint-Martin,34,11,18,48.86860172112996,2.35570102930069,2026-03-24 15:57:01.337873
8105,François 1er - Lincoln,31,3,28,48.869517979344,2.3024262188416,2026-03-24 15:57:01.337873
8029,Place du Canada,58,1,56,48.865346269363,2.3101937879648,2026-03-24 15:57:01.337873
2101,Bachaumont - Montmartre,33,3,29,48.86617395079137,2.3449775576591496,2026-03-24 15:57:01.337873
12154,Square Georges Melies,40,33,6,48.84070239213081,2.409667745232582,2026-03-24 15:57:01.337873
22017,Charles de Gaulle - Louis Philippe,28,16,12,48.881742142181,2.2710045335353,2026-03-24 15:57:01.337873
19030,Melun - Jean Jaurès,28,25,3,48.8837796723475,2.376477420330048,2026-03-24 15:57:01.337873
35008,Place de l'Eglise - Pantin,30,22,4,48.892809461520265,2.4124351143836975,2026-03-24 15:57:01.337873
11044,Square du Bataclan,20,5,14,48.8633762,2.3711327,2026-03-24 15:57:01.337873
1013,Place du Palais Royal,67,1,64,48.862382970647,2.3384822532535,2026-03-24 15:57:01.337873
8049,Georges V - François 1er,22,6,15,48.87034,2.30082,2026-03-24 15:57:01.337873
16031,Vignes - Boulainvilliers,21,17,4,48.856399483950504,2.275240458548069,2026-03-24 15:57:01.337873
14016,René Coty - Parc Montsouris,55,52,3,48.82479134498032,2.336124926805496,2026-03-24 15:57:01.337873
12033,François Truffaut - Saint Emilion,66,7,59,48.83372354344807,2.386601903271428,2026-03-24 15:57:01.337873
18142,Jessaint - Marx Dormoy,30,28,2,48.88484543106364,2.358930408954621,2026-03-24 15:57:01.337873
13110,Moulin de la Pointe,22,20,2,48.82092946051445,2.3563179373741145,2026-03-24 15:57:01.337873
15009,Suffren - Pérignon,46,5,41,48.84717561492764,2.307052147596786,2026-03-24 15:57:01.337873
23005,Gare de Clichy-Levallois,26,20,5,48.89679827481989,2.2984680533409123,2026-03-24 15:57:01.337873
48009,République - Auguste Perret,30,21,8,48.78695280952244,2.3518594354391094,2026-03-24 15:57:01.337873
21009,Le Corbusier - Jean Jaurès,46,27,18,48.83780830557548,2.2408381104469304,2026-03-24 15:57:01.337873
13047,Boutroux - Porte de Vitry,49,17,31,48.822632,2.377738,2026-03-24 15:57:01.337873
4107,Beaumarchais - Pas de la Mule,18,7,9,48.855580507049,2.3684333673431,2026-03-24 15:57:01.337873
22403,Pierre Brossolette - Adolphe Pinard,24,17,7,48.821772279548,2.3131558299065,2026-03-24 15:57:01.337873
9013,Mairie du 9ème,24,1,23,48.873267137583,2.3407534480528,2026-03-24 15:57:01.337873
10203,Dunkerque - Faubourg Saint-Denis,51,51,0,48.879591377764,2.3570314097411,2026-03-24 15:57:01.537300
20204,Monte Cristo - Bagnolet,36,33,3,48.85656581187,2.3972699046135,2026-03-24 15:57:01.537300
92005,Gare de Nanterre Ville,43,8,34,48.8950295,2.1957932,2026-03-24 15:57:01.537300
22103,Senard - Charles Blum,24,3,21,48.857315824799,2.221091687679291,2026-03-24 15:57:01.537300
17001,Guy Môquet - Saint-Ouen,53,46,5,48.892777719023975,2.3270335793495183,2026-03-24 15:57:01.537300
35004,Place du Président Salvador Allende,60,52,4,48.897307310356055,2.40079153681279,2026-03-24 15:57:01.537300
13020,Paul Klee - Place Augusta Holmes,43,1,42,48.838946417408025,2.3704235663952966,2026-03-24 15:57:01.537300
14113,Santé - Arago,38,37,1,48.83507657562064,2.3415737262044938,2026-03-24 15:57:01.537300
35015,Averroès - Aimé Césaire,19,10,6,48.91405323432864,2.412636950612068,2026-03-24 15:57:01.537300
20203,Evariste Galois,21,19,1,48.873341356228,2.4133544409574,2026-03-24 15:57:01.537300
7024,Rapp - Place du Général Gouraud,31,21,9,48.858102885107,2.3004072904587,2026-03-24 15:57:01.537300
20004,Commandant l'Herminier - Gallieni,17,14,3,48.847040552603,2.4160453677177,2026-03-24 15:57:01.537300
12150,Bastille - Quai de la Rapée,27,9,17,48.84682410855,2.3669364675879,2026-03-24 15:57:01.537300
9016,Choron - Martyrs,29,21,5,48.877851443503,2.3396701365709,2026-03-24 15:57:01.537300
21316,Cimetière d'Issy-les-Moulineaux,24,24,0,48.817699773925,2.2609312087297,2026-03-24 15:57:01.537300
9036,Athènes - Clichy,20,5,13,48.878113787876,2.32956021945824,2026-03-24 15:57:01.537300
15125,Parc Suzanne Lenglen,52,4,48,48.833250690537874,2.2765403240919113,2026-03-24 15:57:01.537300
10004,Metz - Faubourg Saint-Denis,48,16,32,48.870893,2.353521,2026-03-24 15:57:01.537300
10017,Gare de l'Est - Fidélité,15,4,9,48.874575,2.356796,2026-03-24 15:57:01.537300
19025,Botzaris - Crimée,21,18,3,48.87959698690176,2.3887913337477067,2026-03-24 15:57:01.537300
10110,Louis Blanc - Jemmapes,31,23,7,48.879330755297,2.3684485629201,2026-03-24 15:57:01.537300
20002,Square de la rue Pixérécourt,45,44,1,48.8736824,2.3960278,2026-03-24 15:57:01.537300
21307,Victor Cresson - Telles de la Poterie,31,8,22,48.822698842979,2.2686498274964,2026-03-24 15:57:01.537300
21702,Gare SNCF Vanves-Malakoff,51,50,0,48.819002163836444,2.292150005103606,2026-03-24 15:57:01.537300
44002,Paul Vaillant-Couturier - Gare RER,26,9,15,48.80108159069614,2.402097210288048,2026-03-24 15:57:01.537300
13039,Ivry - Simone Weil,18,18,0,48.823283932030755,2.3659095168113713,2026-03-24 15:57:01.537300
21030,Fessart - Château,20,14,4,48.84245,2.23989,2026-03-24 15:57:01.537300
16024,Ranelagh - Maison de la Radio,22,0,20,48.85293603169479,2.280449643731117,2026-03-24 15:57:01.537300
15043,Brancion - Lefebvre,11,7,4,48.82900222785569,2.301431038163409,2026-03-24 15:57:01.537300
42305,Vanne - Saussaies,20,15,5,48.786404,2.338848,2026-03-24 15:57:01.537300
11032,Jean-Pierre Timbaud - Vaucouleurs,47,35,11,48.867937,2.377885,2026-03-24 15:57:01.537300
10012,Vinaigriers - Magenta,25,22,2,48.8731167,2.3593052,2026-03-24 15:57:01.537300
13048,Wurtz - Tolbiac,28,24,4,48.82631195621,2.344585955143,2026-03-24 15:57:01.537300
21028,Pierre Lefaucheux - Traversière,35,19,13,48.82435208303827,2.2417913004755974,2026-03-24 15:57:01.537300
4003,Quai aux Fleurs - Pont Saint-Louis,21,7,14,48.852915956209,2.3521957173944,2026-03-24 15:57:01.537300
32301,Mairie de Romainville,17,15,2,48.885109,2.435679,2026-03-24 15:57:01.537300
20108,Jardin de l'Hospice Debrousse,23,18,4,48.861451061938,2.40568600595,2026-03-24 15:57:01.537300
21219,Amaury Duval - Gabriel Péri,36,32,3,48.81718759671675,2.323841750621796,2026-03-24 15:57:01.537300
13033,Porte d'Italie,13,11,2,48.817161987718954,2.360236309468746,2026-03-24 15:57:01.537300
42701,Charles Gide - Fort de Bicêtre,30,29,0,48.8071937956922,2.353984415531159,2026-03-24 15:57:01.537300
16020,Place de la Porte de Passy,36,27,8,48.857341095470794,2.2644165538827115,2026-03-24 15:57:01.537300
14101,Gare Montparnasse - Edgar Quinet,33,28,2,48.841487851079,2.3233232282801,2026-03-24 15:57:01.537300
17015,Place de Lévis,48,39,5,48.883546851533254,2.3131933808326726,2026-03-24 15:57:01.537300
13011,Hôpital - Campo-Formio,11,9,1,48.835405,2.358218,2026-03-24 15:57:01.537300
40009,Lycée Saint Exupéry - Juliette Savar,30,12,18,48.783021513972,2.4637357216879,2026-03-24 15:57:01.537300
23003,Président Wilson - Baudin,28,4,22,48.89826887103676,2.2849336266517644,2026-03-24 15:57:01.537300
14131,Jourdan - Monticelli,30,26,4,48.822032,2.329095,2026-03-24 15:57:01.537300
17023,Porte d'Asnières,36,30,4,48.89035817610495,2.3036286234855656,2026-03-24 15:57:01.537300
44007,Camille Groult - Guy Môquet,22,9,13,48.787482746521306,2.3976725712418556,2026-03-24 15:57:01.537300
4002,Marché aux fleurs,23,4,19,48.855258115391,2.3473754525185,2026-03-24 15:57:01.537300
10105,Mazagran - Bonne Nouvelle,25,4,20,48.870047123655,2.3511248454452,2026-03-24 15:57:01.537300
42501,Raspail - Albert Schweitzer,28,15,12,48.81031545,2.34395871,2026-03-24 15:57:01.537300
6008,Assas - Luxembourg,33,10,22,48.843734468779,2.3334283818759,2026-03-24 15:57:01.537300
13109,Brillat-Savarin - Küss,21,19,2,48.822203,2.350422,2026-03-24 15:57:01.537300
21204,Estienne d'Orves - Henri Ginoux,31,30,1,48.815388220397274,2.320886790760933,2026-03-24 15:57:01.537300
9114,Faubourg Poissonnière - Dunkerque,30,27,1,48.880883445404436,2.349934279918671,2026-03-24 15:57:01.537300
16011,Victor Hugo - La Pompe,41,38,2,48.86795222470859,2.28146318346262,2026-03-24 15:57:01.537300
12007,Gare de Lyon - Chalon,45,34,8,48.845666194202,2.3741452395916,2026-03-24 15:57:01.537300
35007,Benjamin Delessert - Jean Lolive,21,15,3,48.89392043619345,2.417981922626496,2026-03-24 15:57:01.537300
47001,Place de la Gare,46,13,32,48.80253358011283,2.4275037646293645,2026-03-24 15:57:01.537300
13032,Italie - Jardin Joan Miro,26,25,1,48.81990914045756,2.3592948541045193,2026-03-24 15:57:01.537300
14010,Jean Moulin - Place Victor et Hélène Basch,41,37,3,48.82764910241,2.3261967301369,2026-03-24 15:57:01.537300
43001,Paris - Laitières,22,14,7,48.846302741513,2.4207553267479,2026-03-24 15:57:01.537300
18003,Cimetière de Montmartre,43,36,6,48.886472466142,2.3328901827335,2026-03-24 15:57:01.537300
22303,Lucien Lanternier - Le Luth,27,11,14,48.93159430558871,2.2889783978462224,2026-03-24 15:57:01.537300
40005,Conservatoire Marcel Dadi,26,17,9,48.790090379157,2.4535970427243,2026-03-24 15:57:01.537300
92001,Mairie de quartier du Plateau - Mont-Valérien,20,16,3,48.8799933,2.2072437,2026-03-24 15:57:01.537300
15057,Lucien Bossoutrot - Général Martial Vallin,39,8,31,48.836956046311,2.2741072252393,2026-03-24 15:57:01.537300
15004,Vaugirard - Pasteur,21,19,2,48.84040868803496,2.3154367133975033,2026-03-24 15:57:01.537300
23010,Voltaire - Anatole France,27,4,22,48.891999360256904,2.284262739121914,2026-03-24 15:57:01.537300
19128,Quai de l'Oise - Aisne,30,29,0,48.8906231,2.3833701,2026-03-24 15:57:01.537300
15005,Place Jacques et Thérèse Tréfouël,43,27,14,48.842726498317,2.3125657439232,2026-03-24 15:57:01.537300
18006,Square Louise Michel,36,30,5,48.884687354509,2.3441386967897,2026-03-24 15:57:01.537300
21401,Mairie de Clamart,33,27,6,48.800612,2.262151,2026-03-24 15:57:01.537300
9027,Douai - Pierre Fontaine,25,22,2,48.88229101148092,2.33324121683836,2026-03-24 15:57:01.537300
22408,Place du 14 Juillet,22,18,4,48.819266959525,2.3011998832226,2026-03-24 15:57:01.537300
5012,Estrapade - Ulm,16,7,9,48.84512772828,2.3454568170362,2026-03-24 15:57:01.537300
43010,La Jarry - Place Diderot,25,23,1,48.849726940367,2.4520137906075,2026-03-24 15:57:01.537300
11017,Charonne - Bureau,47,45,1,48.854176,2.396093,2026-03-24 15:57:01.537300
7017,La Motte-Picquet - La Tour Maubourg,40,5,34,48.856926701847,2.3096215831203,2026-03-24 15:57:01.537300
35006,Delizy - Louis Nadot,22,11,8,48.896212845581346,2.4094578623771667,2026-03-24 15:57:01.537300
22015,Île de la Jatte,23,10,12,48.894036161302104,2.2666339203715324,2026-03-24 15:57:01.537300
12018,Saint-Mandé - Fabre d'Eglantine,34,27,6,48.8453579,2.3965022,2026-03-24 15:57:01.537300
44005,Place Saint-Just,22,9,11,48.790379518724265,2.3895226791501045,2026-03-24 15:57:01.537300
17119,Toqueville - Cardinet,33,25,7,48.88490187110713,2.3109393194317818,2026-03-24 15:57:01.537300
9004,Gérando - Rochechouart,21,19,1,48.88294340845,2.3464846238494,2026-03-24 15:57:01.537300
33016,Fort d'Aubervilliers,22,18,2,48.91502382370325,2.4035281687974925,2026-03-24 15:57:01.537300
12026,Place Ginette Hamelin,51,36,15,48.837853,2.382064,2026-03-24 15:57:01.537300
10162,Alexandre Parodi - Quai de Valmy,24,17,7,48.879359419425,2.3665961623192,2026-03-24 15:57:01.537300
6012,Saint-Germain - Ciseaux,18,6,12,48.853305277595,2.3344654618827,2026-03-24 15:57:01.537300
44016,Balzac - Olympes de Gouges,28,14,13,48.778503324868,2.4006786569953,2026-03-24 15:57:01.537300
9024,Taitbout - La Fayette,53,2,50,48.8733298892,2.3352625966072,2026-03-24 15:57:01.537300
8201,Arsène Houssaye - Friedland,29,16,13,48.874510616163,2.2994716674148,2026-03-24 15:57:01.537300
46003,Conservatoire de Musique,25,14,10,48.770935866676,2.4034014344215,2026-03-24 15:57:01.537300
9102,Londres - Place d'Estienne d'Orves,25,3,20,48.876693805756986,2.3305362090468407,2026-03-24 15:57:01.537300
92006,Place Nelson Mandela,30,14,15,48.897874318180556,2.2182820737361912,2026-03-24 15:57:01.537300
31005,Square Denise Buisson,45,31,14,48.8562322730982,2.426436245441437,2026-03-24 15:57:01.537300
12005,Crozatier - Faubourg Saint-Antoine,42,10,29,48.850440013405,2.378901366211,2026-03-24 15:57:01.537300
9011,Geoffroy - Marie,20,1,18,48.873781940593325,2.344513876337893,2026-03-24 15:57:01.537300
7202,Constant Coquelin - Invalides,31,0,30,48.848283157236,2.315749520203,2026-03-24 15:57:01.537300
12101,Charenton - Prague,26,14,9,48.848175129981,2.3763584494312,2026-03-24 15:57:01.708989
15129,Hôpital Necker,40,2,36,48.846043490118454,2.313245013356209,2026-03-24 15:57:01.708989
23102,Hôtel de Ville de Sèvres,32,8,23,48.824363561289,2.2131047397852,2026-03-24 15:57:01.708989
6022,Marché Saint-Germain,21,6,14,48.85165625855281,2.335500307381153,2026-03-24 15:57:01.708989
21402,Place Aimé Césaire,27,16,10,48.783194713067815,2.2429127991199493,2026-03-24 15:57:01.708989
13052,Leredde - Tolbiac,44,7,36,48.82887629664,2.3744382709265,2026-03-24 15:57:01.708989
13018,Bruant - Vincent Auriol,25,1,23,48.834848452929,2.3668264996271,2026-03-24 15:57:01.708989
21303,Jean Monnet - Iles,32,13,18,48.823393984057304,2.2497073194874866,2026-03-24 15:57:01.708989
33014,Parc Eli Lotar,20,12,8,48.91844993053703,2.3727085813879967,2026-03-24 15:57:01.708989
20105,Benoît Frachon - République,30,19,10,48.85230729014318,2.415605485439301,2026-03-24 15:57:01.708989
33103,Jean Jaurès - Jules Jacquemin,24,21,2,48.88433053604843,2.4082902455152104,2026-03-24 15:57:01.708989
14032,Mairie du 14ème,32,23,7,48.83254578123,2.3254923149943,2026-03-24 15:57:01.708989
6002,Saint-Benoît - Jacob,23,1,22,48.85545136013941,2.3334722220897675,2026-03-24 15:57:01.708989
14031,Didot - Place de Moro-Giafferi,22,17,5,48.8337,2.3215,2026-03-24 15:57:01.708989
17024,Villiers - Batignolles,23,17,5,48.881252538461,2.3165384307504,2026-03-24 15:57:01.708989
4016,Lobau - Hôtel de Ville,60,2,53,48.8562118,2.3532536,2026-03-24 15:57:01.708989
11033,Bréguet - Sabin,33,12,21,48.856931678257,2.3706749462105,2026-03-24 15:57:01.708989
43201,Place du Général Leclerc,22,17,4,48.76529107158,2.3926565092808,2026-03-24 15:57:01.708989
18039,Jardins d'Eole,20,19,1,48.8869703,2.3668488,2026-03-24 15:57:01.708989
12036,Reuilly - Place Felix Eboue,42,38,3,48.84030274499962,2.394630398715453,2026-03-24 15:57:01.708989
16012,Flandrin - Longchamp,42,12,30,48.86877849178477,2.274354539176829,2026-03-24 15:57:01.708989
16036,Porte Molitor,60,37,21,48.84524763511433,2.2569015249609947,2026-03-24 15:57:01.708989
42505,Charles Frérot - Albert Guilpin,30,11,19,48.8155839183714,2.3505029082298283,2026-03-24 15:57:01.708989
10032,Claude Vellefaux - Hôpital Saint-Louis,32,25,6,48.872859139003,2.3700717069851,2026-03-24 15:57:01.708989
14001,Edgar Quinet - Gaité,27,26,1,48.841160928966,2.324595451355,2026-03-24 15:57:01.708989
1006,Grande Truanderie - Saint-Denis,33,1,27,48.8626302,2.3498075,2026-03-24 15:57:01.708989
15008,Sèvres - Lecourbe,62,44,16,48.8447677,2.3110086,2026-03-24 15:57:01.708989
22201,Henri Ravera - Gabriel Péri,30,26,3,48.79722273833844,2.302115857601166,2026-03-24 15:57:01.708989
18202,Diane Arbus,38,35,3,48.898800717199,2.3524022474885,2026-03-24 15:57:01.708989
44014,Camille Risch - Paul Armangot,25,18,7,48.774703,2.373685,2026-03-24 15:57:01.708989
12037,Reuilly - Daumesnil,36,33,2,48.8395385,2.3972516,2026-03-24 15:57:01.708989
1007,Turbigo - Française,16,4,11,48.86358858111446,2.3477794602513313,2026-03-24 15:57:01.708989
18034,Leibniz - Jean Dollfus,32,30,1,48.896328348515986,2.333390423834684,2026-03-24 15:57:01.708989
12019,Gare de Reuilly - Picpus,28,24,2,48.84267354116789,2.3972943797707558,2026-03-24 15:57:01.708989
20104,Louis Lumière.,22,18,3,48.86216198070008,2.41112578185621,2026-03-24 15:57:01.708989
14135,Jourdan - Cité Universitaire,39,33,6,48.819897343156676,2.3397007964124366,2026-03-24 15:57:01.708989
8110,Gare Saint-Lazare - Stockholm,32,22,7,48.877127316667654,2.322417162358761,2026-03-24 15:57:01.708989
20024,Gambetta - Père Lachaise,29,28,1,48.864295696165875,2.398228667282044,2026-03-24 15:57:01.708989
9009,Square Montholon,21,15,6,48.876620377545024,2.3457641154527664,2026-03-24 15:57:01.708989
6104,Herschel - Observatoire,56,20,33,48.84342376221923,2.3376645147800446,2026-03-24 15:57:01.708989
16102,Pergolèse - Marbeau,27,19,7,48.873568706869,2.2815125225299,2026-03-24 15:57:01.708989
13005,Cordelières - Arago,60,44,16,48.83548071896613,2.348572461702221,2026-03-24 15:57:01.708989
13208,Italie - Tage,0,0,0,48.822282643954,2.3584301877038,2026-03-24 15:57:01.708989
19201,Petit - Georges Thill,23,20,3,48.88603131999171,2.3895753175020222,2026-03-24 15:57:01.708989
19010,Emile Reynaud - Porte de la Villette,22,15,7,48.90098953630053,2.3887022584676743,2026-03-24 15:57:01.708989
22301,Chausson - Gabriel Péri,22,18,2,48.921891003481115,2.2952306270599365,2026-03-24 15:57:01.708989
15132,Bargue -  Dutot,21,19,2,48.837884,2.308876,2026-03-24 15:57:01.708989
41405,Place de l'Europe - Alfortville,24,7,18,48.78913702405837,2.4284800887107854,2026-03-24 15:57:01.708989
20006,Pyrénées - Plaine,12,10,2,48.85026702458,2.4062821269035,2026-03-24 15:57:01.708989
10011,Bourse du Travail,17,1,16,48.868976638826,2.3623438552022,2026-03-24 15:57:01.708989
21953,Gare de Bellevue,20,17,3,48.8192404685572,2.2295309230685234,2026-03-24 15:57:01.708989
3011,Turbigo - Réaumur,31,1,26,48.865574047531,2.3564198613167,2026-03-24 15:57:01.708989
10006,Petites Ecuries - Faubourg Saint-Denis,28,3,23,48.872871205898,2.3542150855064,2026-03-24 15:57:01.708989
8027,Mairie du 8ème,28,16,11,48.877932,2.318264,2026-03-24 15:57:01.708989
10027,Dunkerque - Alsace,20,16,3,48.879355,2.358379,2026-03-24 15:57:01.708989
4103,Archives - Rivoli,25,3,21,48.857346707443,2.3539767041802,2026-03-24 15:57:01.708989
14103,Maine - Liancourt,27,26,0,48.835064363954,2.323731449974,2026-03-24 15:57:01.708989
13209,Italie - Vistule,0,0,0,48.823439332972,2.3582062304047,2026-03-24 15:57:01.708989
7021,Bosquet - Saint-Dominique,28,12,16,48.858651709526,2.3037165802346,2026-03-24 15:57:01.708989
21026,Sèvres - Général Leclerc,30,4,24,48.830121559055,2.2314262390137,2026-03-24 15:57:01.708989
32013,Saint-Denis - Université,24,17,6,48.94563430946964,2.3638297989964485,2026-03-24 15:57:01.708989
20029,Frères Flavien - Porte des Lilas,23,23,0,48.8780992764359,2.41104629853209,2026-03-24 15:57:01.708989
22503,Joffre - Aigle,20,17,2,48.904033,2.245096,2026-03-24 15:57:01.708989
1102,Française - Etienne Marcel,37,2,34,48.864053304653766,2.347587011754513,2026-03-24 15:57:01.708989
13017,Nationale - Vincent Auriol,33,26,6,48.83252708397293,2.362354410392119,2026-03-24 15:57:01.708989
15111,Olivier de Serres - Leriche,25,13,12,48.83460221715206,2.2957482933998112,2026-03-24 15:57:01.708989
12020,Cours de Vincennes - Soult,45,40,5,48.846918761569,2.4105220288038,2026-03-24 15:57:01.708989
24006,Adolphe Lalyre - Armand Silvestre,40,29,11,48.90406266961591,2.273416221141815,2026-03-24 15:57:01.708989
3009,Temple - Haudriettes,19,1,14,48.861636880212,2.3566960206458,2026-03-24 15:57:01.708989
14132,Bézout - Général Leclerc,30,28,1,48.82884804502439,2.3285973072052,2026-03-24 15:57:01.708989
21110,Parc Roger Salengro,35,6,27,48.905303858642,2.31055945158,2026-03-24 15:57:01.708989
14022,Didot - Mariniers,35,32,3,48.82650543613106,2.313136198271666,2026-03-24 15:57:01.708989
3003,Fille du Calvaire - Turenne,29,12,17,48.86210505412563,2.3649600148200993,2026-03-24 15:57:01.708989
13125,Gare d'Austerlitz - Pont Charles de Gaulle,75,50,25,48.842319830109,2.3670300096273,2026-03-24 15:57:01.708989
3005,Sainte-Elisabeth - Turbigo,33,4,27,48.86610337431,2.3596492409706,2026-03-24 15:57:01.708989
8036,Lisbonne - Monceau,47,13,32,48.877455676814,2.3096942214195,2026-03-24 15:57:01.708989
42704,Mairie du Kremlin-Bicêtre,25,24,1,48.81191981537702,2.3570189997553825,2026-03-24 15:57:01.708989
4017,Place de l'Hôtel de Ville,14,1,12,48.8573314,2.351458,2026-03-24 15:57:01.708989
21509,Gardenat Lapostol - Franklin Roosevelt,24,18,5,48.871839,2.222505,2026-03-24 15:57:01.708989
13054,Pau Casals - Neuve Tolbiac,78,9,69,48.8311602,2.3774395,2026-03-24 15:57:01.708989
19130,Place Paul Delouvrier,42,24,17,48.89197621431365,2.3851288855075836,2026-03-24 15:57:01.708989
21505,Édouard Vaillant - Place Jean Jaurès,24,23,1,48.86265537999924,2.2089037319128613,2026-03-24 15:57:01.708989
2004,Square Pierre Lazareff,17,0,17,48.867141720746,2.3483933508396,2026-03-24 15:57:01.708989
4018,Saint-Bon - Rivoli,31,0,30,48.857999643315,2.3502172809763,2026-03-24 15:57:01.708989
44001,Quai Jules Guesde - Saint-Simon,30,13,16,48.80391487219,2.4089661620274,2026-03-24 15:57:01.708989
16202,Commandant Schloesing - Pétrarque,30,26,4,48.861773096259,2.2838841134601,2026-03-24 15:57:01.708989
5004,Saint-Jacques - Val de Grâce,19,0,19,48.8417514,2.3413893,2026-03-24 15:57:01.708989
4009,Village Saint-Paul,28,4,19,48.852639866625,2.3607301712036,2026-03-24 15:57:01.708989
2012,Choiseul - Quatre Septembre,44,4,7,48.869935533187,2.3359975218773,2026-03-24 15:57:01.708989
4101,Bastille - Beaumarchais,23,2,17,48.853833463852,2.3685702681541,2026-03-24 15:57:01.708989
32019,Place du 8 mai 1945.,30,18,10,48.938882272105,2.3566243797541,2026-03-24 15:57:01.708989
9039,Chaussée d'Antin - Haussmann,28,1,26,48.87243,2.33359,2026-03-24 15:57:01.708989
22506,Gare des Vallées,20,11,6,48.913179,2.257726,2026-03-24 15:57:01.708989
27001,Square Victor Basch,20,14,5,48.914304862261,2.2289156913757,2026-03-24 15:57:01.708989
1018,Alger - Rivoli,21,5,15,48.864773553495,2.3294493936128,2026-03-24 15:57:01.708989
2008,Mairie du 2ème,28,3,24,48.8672190355135,2.3404625437747044,2026-03-24 15:57:01.708989
23101,Grande Rue - Europe,25,20,5,48.8218104687602,2.205879874527455,2026-03-24 15:57:01.708989
18015,Custine - Ramey,41,39,2,48.888735896947,2.3469526693225,2026-03-24 15:57:01.708989
32024,Port - Confluence,26,21,5,48.936093926526,2.3436167797955,2026-03-24 15:57:01.708989
22601,Marx Dormoy - Château Sainte-Barbe,22,21,1,48.791782341055324,2.297856844961643,2026-03-24 15:57:01.708989
19202,Marseillaise - Grenade,45,36,9,48.889371092747,2.3979396821544,2026-03-24 15:57:01.874830
14201,Decrès - Alésia,30,27,3,48.832200060759,2.3139070151575,2026-03-24 15:57:01.874830
17021,Jouffroy d'Abbans - Villiers,34,29,4,48.884215547037,2.3056533560157,2026-03-24 15:57:01.874830
43403,Gare RER - Canadiens,40,25,15,48.819659244971,2.4644082766769,2026-03-24 15:57:01.874830
12164,Stade Pershing,26,23,3,48.829107826857,2.4583535268903,2026-03-24 15:57:01.874830
12203,Nicolaï - Charenton,44,37,7,48.835478791995,2.392894725661,2026-03-24 15:57:01.874830
28005,Jean Jaurès - Paul Lafargue,28,11,17,48.884933177666,2.2484488785267,2026-03-24 15:57:01.874830
16139,Suresnes - Muette à Neuilly,30,17,12,48.868570404348,2.266000919044,2026-03-24 15:57:01.874830
42028,Verdun - Carnot,28,25,2,48.808439376064946,2.373795211315155,2026-03-24 15:57:01.874830
22603,Place de la Division Leclerc,34,31,1,48.793824988636516,2.2731140430551027,2026-03-24 15:57:01.874830
12113,Cardinal Lavigerie,46,35,10,48.832934193699835,2.402636749399156,2026-03-24 15:57:01.874830
23042,André Theuriet - Blagis,30,21,9,48.77977325745441,2.3130525648593903,2026-03-24 15:57:01.874830
42019,Lampes,43,12,31,48.81152481985875,2.4017931148409843,2026-03-24 15:57:01.874830
32020,Jules Guesdes - Carnot,16,7,9,48.93828169931872,2.3508992046117783,2026-03-24 15:57:01.874830
27006,Victor Hugo - Gare,22,13,8,48.923133952658,2.2600970417261,2026-03-24 15:57:01.874830
1008,Les Halles - Saint-Eustache,32,3,29,48.86362695901683,2.342623919248581,2026-03-24 15:57:01.874830
2006,Place des Victoires,24,2,21,48.8660354,2.3420333,2026-03-24 15:57:01.874830
9019,Victor Massé - Jean-Baptiste Pigalle,18,17,0,48.8811043724,2.3366955667734,2026-03-24 15:57:01.874830
44004,Place de l'Eglise - Vitry-sur-Seine,28,3,24,48.791922819921815,2.395057752728462,2026-03-24 15:57:01.874830
1024,Coquillière - Louvre,21,0,21,48.863795909662,2.3425736278296,2026-03-24 15:57:01.874830
2102,Saint-Marc - Feydeau,37,0,36,48.870326843044,2.3418715826353,2026-03-24 15:57:01.874830
2020,Danielle Casanova - Opéra,20,0,19,48.867643242297,2.3333894088864,2026-03-24 15:57:01.874830
6007,Bréa - Raspail,24,24,0,48.842738478258,2.3297942217634,2026-03-24 15:57:01.874830
6029,Vaugirard - Monsieur le Prince,26,3,22,48.848951441614,2.3411329463124,2026-03-24 15:57:01.874830
23202,Henri Barbusse - Gabriel Péri,28,24,4,48.801773795836,2.2874166362216,2026-03-24 15:57:01.874830
12016,Saint-Mande - Picpus,35,32,3,48.845127728278,2.4015686296482,2026-03-24 15:57:01.874830
23301,Les Blagis,27,10,15,48.785205,2.302526,2026-03-24 15:57:01.874830
23104,Quai de Sèvres - Manufacture Nationale,28,7,18,48.828688,2.22499,2026-03-24 15:57:01.874830
21011,Silly - Louis Blériot,23,6,16,48.83219045374266,2.2340199351310734,2026-03-24 15:57:01.874830
48012,Stalingrad - Henri Luisette,26,23,3,48.78363092456589,2.366935946761926,2026-03-24 15:57:01.874830
23303,Gare de Robinson,30,17,12,48.7799259211605,2.281828634440899,2026-03-24 15:57:01.874830
20010,Sorbier - Gasnier-Guy,34,34,0,48.865217631011,2.3936596512794,2026-03-24 15:57:01.874830
15018,Dutot - Place Alleray,56,56,0,48.836826091766,2.3071701095578,2026-03-24 15:57:01.874830
26012,Jardin Modèle - Pierre Boudou,18,1,16,48.914866710946,2.3057010525935,2026-03-24 15:57:01.874830
20048,Bagnolet - Place Saint-Blaise,28,26,1,48.85973,2.40334,2026-03-24 15:57:01.874830
32605,Mairie,20,19,1,48.87914304162,2.4163350908311,2026-03-24 15:57:01.874830
17202,Mariotte - Batignolles,20,17,2,48.884571659595,2.321469503475,2026-03-24 15:57:01.874830
32011,Stade de France - Francis de Pressensé,44,6,36,48.919141953558,2.3620655760169,2026-03-24 15:57:01.874830
18010,Riquet - Marx Dormoy,36,30,3,48.89021003702,2.3601756244898,2026-03-24 15:57:01.874830
18135,Ney - Porte de Montmartre,24,23,1,48.897918,2.3364872,2026-03-24 15:57:01.874830
34011,Clef des Champs - Albert Dhalenne,28,15,13,48.914938,2.330665,2026-03-24 15:57:01.874830
21329,Gare - Aristide Briand,29,10,19,48.821410564722,2.2555950104387,2026-03-24 15:57:01.874830
21704,Place du Maréchal de Lattre de Tassigny,27,18,9,48.821707715257055,2.2853431485432423,2026-03-24 15:57:01.874830
13015,Chevaleret - Louise Weiss,35,4,31,48.832586513351,2.37121138812,2026-03-24 15:57:01.874830
25007,Bons Raisins - Voltaire,24,22,1,48.87282451461399,2.1947155570850896,2026-03-24 15:57:01.874830
12123,Château de Vincennes,52,20,31,48.84423193255657,2.439209537709179,2026-03-24 15:57:01.874830
21002,Place Denfert-Rochereau,20,10,9,48.843252536286684,2.245987951755524,2026-03-24 15:57:01.874830
15012,Cambronne - Mademoiselle,67,56,9,48.843277330035214,2.30230766886348,2026-03-24 15:57:01.874830
19117,Euryale Dehaynin - Loire,30,20,8,48.886248917304805,2.3774591088294987,2026-03-24 15:57:01.874830
11022,Roquette - Auguste Laurent,16,9,7,48.858001906023,2.3817977026508,2026-03-24 15:57:01.874830
15053,Lecourbe - Convention,46,38,7,48.83923319241899,2.2915197908878326,2026-03-24 15:57:01.874830
20003,Pyrénées - Cours de Vincennes,21,16,5,48.847796779935,2.4061721563339,2026-03-24 15:57:01.874830
41103,Place de la vache noire,25,20,4,48.81040517059777,2.327060401439667,2026-03-24 15:57:01.874830
42303,Place Eustache Deschamps,20,9,8,48.793855,2.336637,2026-03-24 15:57:01.874830
30003,Moscou - Edouard Vaillant,30,22,7,48.90755810177,2.4689837335263,2026-03-24 15:57:01.874830
12102,Bercy - Traversiére,30,4,21,48.846192642574,2.3703800886869,2026-03-24 15:57:01.874830
14004,Port Royal - Hôpital Cochin,23,15,8,48.838608030238,2.3406994164846,2026-03-24 15:57:01.874830
11111,Léon Frot - Charonne,38,35,3,48.854963800335,2.387217085372,2026-03-24 15:57:01.874830
16025,Jean de la Fontaine - Boulainvilliers,68,6,58,48.85264791461651,2.2758664190769196,2026-03-24 15:57:01.874830
14009,Tombe Issoire - René Coty,36,27,5,48.830512876709,2.3343613743782,2026-03-24 15:57:01.874830
17117,Pereire - Saussure,32,31,1,48.888229075478,2.3101296275854,2026-03-24 15:57:01.874830
16017,Siam - La Pompe,16,12,3,48.861720329027264,2.275346568555312,2026-03-24 15:57:01.874830
18021,Marcadet - Ramey,39,37,2,48.890875,2.3449019,2026-03-24 15:57:01.874830
25004,Marcel Pourtout - Édouard Manet,24,11,12,48.87555620763429,2.1655967831611638,2026-03-24 15:57:01.874830
12022,Sahel - Général Michel Bizot,47,45,2,48.840872964793355,2.4044444784522057,2026-03-24 15:57:01.874830
15027,Duhamel - André Gide,20,17,3,48.8365662244334,2.312707121097412,2026-03-24 15:57:01.874830
21023,Ancienne Mairie - André Morizet,25,5,18,48.838311,2.234077,2026-03-24 15:57:01.874830
42205,Place Aristide Briand,35,30,3,48.82189236575831,2.413003742694855,2026-03-24 15:57:01.874830
22701,Général Leclerc - République,30,19,11,48.915885074177,2.2682306702811,2026-03-24 15:57:01.874830
17110,Legendre - Nollet,30,28,1,48.887742186754224,2.320293079881375,2026-03-24 15:57:01.874830
31701,Mairie de Bagnolet,28,25,3,48.868421318555,2.4179587885737,2026-03-24 15:57:01.874830
22404,Pierre Brossolette - 12 Février 1934,25,21,4,48.8176962416867,2.3076123744249344,2026-03-24 15:57:01.874830
20032,Square des Amandiers,26,26,0,48.86615630668046,2.3891324177384377,2026-03-24 15:57:01.874830
14035,Maine - Jean Zay,50,43,7,48.837925263898,2.3225428909063,2026-03-24 15:57:01.874830
14005,René Coty - Place Denfert-Rochereau,36,33,2,48.833056477316,2.3329411447048,2026-03-24 15:57:01.874830
8046,Marceau - Président Wilson,32,4,27,48.8652359,2.3002513,2026-03-24 15:57:01.874830
20110,Gambetta - Tourelles,20,20,0,48.875337902264,2.4059921130538,2026-03-24 15:57:01.874830
32306,Verdun - Carnot,29,27,1,48.883814948134,2.4402657783125,2026-03-24 15:57:01.874830
8007,Rome - Provence,30,0,29,48.874230055580306,2.325570111724113,2026-03-24 15:57:01.874830
6028,Quatre Vents - Carrefour de l'Odéon,37,0,37,48.851751374458864,2.338161695134053,2026-03-24 15:57:01.874830
21207,Verdier - République,29,27,2,48.815403766277,2.31739372015,2026-03-24 15:57:01.874830
12122,Bois de Vincennes - Polygone,51,41,10,48.83544491617421,2.431421081436563,2026-03-24 15:57:01.874830
15120,Colonel Pierre Avia,29,0,28,48.8296843300915,2.275342586850291,2026-03-24 15:57:01.874830
16033,Marché d'Auteuil,32,31,1,48.84842761367387,2.265253821160005,2026-03-24 15:57:01.874830
21205,Arthur Auger - Jean Jaurès,26,21,5,48.813736445585235,2.3069277405738835,2026-03-24 15:57:01.874830
16023,Passy - Place du Costa Rica,33,31,1,48.8584893,2.2839655,2026-03-24 15:57:01.874830
15114,Pasteur - Cotentin,33,30,3,48.8389284,2.316356,2026-03-24 15:57:01.874830
19014,Lorraine - Jean Jaurès,19,17,2,48.8863865,2.3825772,2026-03-24 15:57:01.874830
15014,Volontaires - Vaugirard,34,29,4,48.84132050184004,2.30808901725357,2026-03-24 15:57:01.874830
22014,Victor Hugo - Bineau,25,8,17,48.88758225888669,2.2783890366554265,2026-03-24 15:57:01.874830
28002,De Gaulle - Moulin,23,16,7,48.885816808239,2.229607694148,2026-03-24 15:57:01.874830
25002,Hôtel de Ville de Rueil-Malmaison,20,3,16,48.878194,2.181724,2026-03-24 15:57:01.874830
15113,Arsonval - Falguière,25,21,3,48.84040040365445,2.313117867297474,2026-03-24 15:57:01.874830
16022,Jean Bologne - Passy,19,17,2,48.857566889784465,2.280027395306772,2026-03-24 15:57:01.874830
19001,Crimée - Ourcq,56,42,14,48.894104140316,2.3729460884673,2026-03-24 15:57:01.874830
12040,Porte de Charenton,67,63,2,48.831240105856,2.3989107459784,2026-03-24 15:57:01.874830
20106,Mairie du 20ème,27,19,8,48.865302324275,2.3990669846535,2026-03-24 15:57:01.874830
13037,Ivry - Baudricourt,20,16,4,48.824695995415006,2.363106073577468,2026-03-24 15:57:01.874830
5031,Lacépède - Linné,54,20,34,48.8437035476636,2.354651279747486,2026-03-24 15:57:01.874830
42027,Verdun - Pierre et Marie Curie,26,19,7,48.812822398263286,2.3707106709480286,2026-03-24 15:57:01.874830
8044,Alfred de Vigny - Place du Général Brocard,33,20,13,48.87836138361425,2.305254448220567,2026-03-24 15:57:01.997050
51007,Résistance - Romain Rolland,28,18,10,48.950873482371,2.2310190077797,2026-03-24 15:57:01.997050
17036,Place Tristan Bernard,28,22,5,48.8794936,2.2915423,2026-03-24 15:57:01.997050
11040,Temple - Jean-Pierre Timbaud,36,24,12,48.86446597201,2.3660597205162,2026-03-24 15:57:01.997050
11038,Temple - Charlot,45,17,28,48.865709343796,2.3652737250724,2026-03-24 15:57:01.997050
1201,Perrault - Place du Louvre,28,0,26,48.860273568996,2.3412468419093,2026-03-24 15:57:01.997050
21033,Sèvres - Maréchal Juin,18,15,3,48.8324305,2.2292812,2026-03-24 15:57:01.997050
8003,Galilée - Vernet,47,23,23,48.871715878697,2.2985444962978,2026-03-24 15:57:01.997050
22703,Place Jean Mermoz,30,24,5,48.9220937,2.2718348,2026-03-24 15:57:01.997050
24010,Charles de Gaulle - Rue de l'Alma,28,19,7,48.896620592993,2.252313240191,2026-03-24 15:57:01.997050
41101,Paul Doumer - Stalingrad,24,6,16,48.806518992199,2.3368880152702,2026-03-24 15:57:01.997050
3201,Payenne - Square George Caïn,24,2,22,48.8578329,2.3622643,2026-03-24 15:57:01.997050
21508,Georges Pompidou - Verdun,26,16,9,48.875481,2.232443,2026-03-24 15:57:01.997050
15032,Félix Faure - Lourmel,58,20,37,48.83868901709515,2.2818081825971603,2026-03-24 15:57:01.997050
20037,Gambetta - Saint Fargeau,24,23,1,48.871244610447015,2.4039056897163396,2026-03-24 15:57:01.997050
13053,Chevaleret - Tolbiac,35,5,28,48.82941,2.375934,2026-03-24 15:57:01.997050
9029,Saint-Lazare - Place d'Estienne d'Orves,39,5,32,48.8768345,2.3329067,2026-03-24 15:57:01.997050
41212,Nungesser - Santé,22,21,1,48.852335,2.448967,2026-03-24 15:57:01.997050
41304,Port - Maurice Chevalier,30,8,22,48.832474421632,2.490257616467,2026-03-24 15:57:01.997050
8031,Jean Mermoz - Champs-Elysées,49,2,47,48.869689856852,2.3107324540615,2026-03-24 15:57:01.997050
20030,Ménilmontant - Père Lachaise,41,41,0,48.863287291502,2.3869940266013,2026-03-24 15:57:01.997050
35021,Cartier Bresson - Denis Papin,31,24,6,48.902616,2.397814,2026-03-24 15:57:01.997050
10025,Jemmapes - Ecluses Saint-Martin,15,10,4,48.87748519186726,2.3660067468881607,2026-03-24 15:57:01.997050
11201,Faubourg St-Antoine - Place de la Nation,16,14,2,48.8487726,2.393606,2026-03-24 15:57:01.997050
25010,Maréchal Leclerc de Hauteclocque - Marché Buzenval,30,17,13,48.858446,2.192077,2026-03-24 15:57:01.997050
12106,Gare de Lyon - Roland Barthes,68,31,33,48.84395729494058,2.3790882155299187,2026-03-24 15:57:01.997050
23201,Avenir,45,40,5,48.8103438,2.3003776,2026-03-24 15:57:01.997050
12165,Champs de Manoeuvre - Cartoucherie,35,9,26,48.835261,2.447974,2026-03-24 15:57:01.997050
12001,Bastille - Biscornet,62,10,49,48.851355779579,2.369220033288,2026-03-24 15:57:01.997050
22018,Charles de Gaulle - Les Sablons,35,14,21,48.880987514929,2.2715748726513,2026-03-24 15:57:01.997050
11001,Richard Lenoir - Place de la Bastille,53,14,37,48.8538327,2.3697222,2026-03-24 15:57:01.997050
10163,Gare du Nord - Demarquay,30,27,2,48.881154,2.358411,2026-03-24 15:57:01.997050
23203,Division Leclerc - Kléber,25,23,1,48.798666226364,2.2833752789972,2026-03-24 15:57:01.997050
17126,Hélène et François Missoffe - Emile Borel,32,22,7,48.89990653843488,2.321543991674844,2026-03-24 15:57:01.997050
34005,Adrien Lesesne - Docteur Bauer,30,21,9,48.90263867304635,2.348248063431511,2026-03-24 15:57:01.997050
17127,Porte de Clichy - Place des Nations Unies,40,31,6,48.896737263309504,2.310542999196392,2026-03-24 15:57:01.997050
26008,Henri Barbusse - Bourguignons,34,27,5,48.91301722799713,2.2734212270774417,2026-03-24 15:57:01.997050
26009,Marceau Delorme - Pierre Brossolette,28,17,4,48.91206062860357,2.295897423568745,2026-03-24 15:57:01.997050
15052,Convention - Vaugirard,62,43,19,48.837676822332,2.2955869260203,2026-03-24 15:57:01.997050
5107,Pontoise - La Tournelle,23,0,23,48.850458009188,2.3524542754922,2026-03-24 15:57:01.997050
10026,Gare de l'Est - Chateau Landon,59,53,6,48.879305,2.362424,2026-03-24 15:57:01.997050
17010,Jonquière - Docteur Paul Brousse,54,39,14,48.894799816683985,2.318705212173216,2026-03-24 15:57:01.997050
18023,Ordener - Poissonniers,35,31,3,48.891213890844654,2.351288666219873,2026-03-24 15:57:01.997050
18026,Ruisseau - Ordener,53,44,4,48.89299462568024,2.340144887566567,2026-03-24 15:57:01.997050
18024,Clignancourt - Ordener,35,34,1,48.891457726153774,2.348636478060487,2026-03-24 15:57:01.997050
2108,Vivienne - Montmartre,54,4,48,48.871347597383,2.3414588347077,2026-03-24 15:57:01.997050
31202,Gabriel Péri - Jules Ferry,25,23,2,48.926182814311,2.3912295762525,2026-03-24 15:57:01.997050
47002,Les Juilliottes,21,15,6,48.804356733455,2.4434815704655,2026-03-24 15:57:01.997050
20112,Jourdain - Place des Grandes Rigoles,22,21,1,48.874031137272,2.3895947635174,2026-03-24 15:57:01.997050
31201,Suzanne Masson,37,3,34,48.923306888013,2.3847292397611,2026-03-24 15:57:01.997050
15062,Convention - Lourmel,36,19,17,48.842055041656,2.2859910875559,2026-03-24 15:57:01.997050
13203,Square de Choisy - Eastman,24,21,3,48.828543456283,2.3583075090494,2026-03-24 15:57:01.997050
47007,Liberté - Vert-de-Maisons,20,17,3,48.790147809608,2.4328628182411,2026-03-24 15:57:01.997050
13202,Place Farhat Hached,28,6,21,48.825487045602,2.3816306985827,2026-03-24 15:57:01.997050
13051,Halle Freyssinet - Parvis Alan Turing,37,1,36,48.832846814471,2.3711421713233,2026-03-24 15:57:01.997050
47008,Les Planètes,21,8,13,48.80929410761,2.4596271973784,2026-03-24 15:57:01.997050
21501,Pont de Suresnes,18,8,6,48.867415092322,2.2258946679617,2026-03-24 15:57:01.997050
19204,Rampal - Belleville,20,17,3,48.873114661405,2.3798409114805,2026-03-24 15:57:01.997050
18206,Albert Kahn - Duhesme,38,34,1,48.895623001056,2.345815078896,2026-03-24 15:57:01.997050
18042,Place Pigalle,21,19,2,48.8827555,2.3361566,2026-03-24 15:57:01.997050
11014,Place de la Nation - Taillebourg,47,43,3,48.8488408,2.3973043,2026-03-24 15:57:01.997050
8057,Hoche - Tilsitt,33,24,9,48.874836457837,2.2971323132515,2026-03-24 15:57:01.997050
11012,Montreuil - Voltaire,34,33,1,48.850507011842,2.3930755582745,2026-03-24 15:57:01.997050
35001,Jean Jaurès - Ouvrières Pivéreuses,22,16,6,48.910423437526,2.3995766043663,2026-03-24 15:57:01.997050
15060,Place de la Montagne du Goulet,21,10,11,48.8443415,2.2773844,2026-03-24 15:57:01.997050
11037,Faubourg Du Temple - Republique,38,5,32,48.867872484749,2.3648982158072,2026-03-24 15:57:01.997050
15105,Fédération - Suffren,25,3,21,48.852828153442,2.2978776320815,2026-03-24 15:57:01.997050
18205,Mauroy - Cheminots,32,22,10,48.897715198403,2.357895075822,2026-03-24 15:57:01.997050
11020,Belfort - Voltaire,53,46,7,48.8563358,2.3829901,2026-03-24 15:57:01.997050
7111,Ecole Militaire - Place Joffre,26,12,14,48.852060203583,2.3017993569374,2026-03-24 15:57:01.997050
7025,Octave Gréard - Tour Eiffel,33,1,32,48.856502977696,2.2931787543289,2026-03-24 15:57:01.997050
4108,Quai de Béthune - Pont de la Tournelle,25,10,13,48.85097433194,2.3563072085381,2026-03-24 15:57:01.997050
40010,Haut du Mont-Mesly,21,9,11,48.780191921646,2.4685737495183,2026-03-24 15:57:01.997050
12107,Diderot - Pierre Bourdan,21,16,5,48.847648620797,2.3902582749724,2026-03-24 15:57:01.997050
23011,Bineau - Louise Michel,26,6,19,48.88666162207,2.2843274474144,2026-03-24 15:57:01.997050
16005,Raymond Poincaré - Place Victor Hugo,25,18,7,48.87030612437,2.2850745414202,2026-03-24 15:57:01.997050
15122,Place Charles Vallin,26,19,7,48.835523812041,2.3025986552238,2026-03-24 15:57:01.997050
40004,Créteil Village,25,9,16,48.79122395576,2.4642198533952,2026-03-24 15:57:01.997050
32004,Wilson - Landy,40,40,0,48.915167262214,2.3576332256198,2026-03-24 15:57:01.997050
40008,Créteil Pompadour,44,27,17,48.773011623355,2.435166164893,2026-03-24 15:57:01.997050
14021,Place de la Porte de Châtillon,59,56,3,48.8242469,2.3186306,2026-03-24 15:57:01.997050
40015,Iles de Loisirs de Créteil,24,4,17,48.780258200618,2.4455094301232,2026-03-24 15:57:01.997050
2202,Réaumur - Montmartre,38,38,0,48.86791186523,2.3448715883461,2026-03-24 15:57:01.997050
51005,Yves Farges - Route d'Enghien,35,26,9,48.95756799268,2.2834496977978,2026-03-24 15:57:01.997050
10031,Louis Blanc - Aqueduc,37,31,6,48.882030182599,2.363561578095,2026-03-24 15:57:01.997050
31708,Noisy le Sec - Jean-Baptiste Clément,22,22,0,48.874515389637,2.4152836203575,2026-03-24 15:57:01.997050
27004,Gare de la Garenne-Colombes,28,26,1,48.909752,2.239145,2026-03-24 15:57:01.997050
31029,Vincennes - François Debergue,24,24,0,48.857497590947,2.4375258284792,2026-03-24 15:57:01.997050
15103,Cauchy - Cévennes,51,7,44,48.843372571022,2.2751328349113,2026-03-24 15:57:01.997050
10013,Alibert - Jemmapes,60,37,22,48.871044051984,2.3661044619878,2026-03-24 15:57:01.997050
15026,Bir Hakeim,33,11,21,48.853844054334,2.289705348222,2026-03-24 15:57:01.997050
41301,Bois de Vincennes - Gare,50,37,12,48.836022242887,2.470833995083,2026-03-24 15:57:01.997050
34014,Michelet - Dr Bauer,32,21,11,48.906125424194,2.3440374449846,2026-03-24 15:57:01.997050
23805,Suresnes - Place du Souvenir Français,16,15,0,48.847007898514,2.1941100043056,2026-03-24 15:57:01.997050
30001,Hôtel de Ville - Adrienne Bolland,33,24,9,48.905280057722,2.4455443018674,2026-03-24 15:57:01.997050
34015,Louis Dain - Rosiers,35,27,5,48.904676215771,2.3379541963343,2026-03-24 15:57:01.997050
32001,Proudhon - Président Wilson,30,21,8,48.906442763495,2.3584905266762,2026-03-24 15:57:01.997050
13123,BNF - Bibliothèque Nationale de France,42,1,50,48.8350268238,2.3760157451034,2026-03-24 15:57:01.997050
32012,Carrefour Pleyel,68,19,46,48.92034156960326,2.3438543826341625,2026-03-24 15:57:01.997050
43101,Adrien Raynal - Verger,30,12,18,48.743385629116,2.4025604826094,2026-03-24 15:57:01.997050
10031,Louis Blanc - Aqueduc,37,31,6,48.882030182599,2.363561578095,2026-03-24 15:57:02.137347
13001,Port-Royal - Hôpital du Val-de-Grâce,18,8,9,48.837668272811,2.3448138346607,2026-03-24 15:57:02.137347
6010,Chevreuse - Montparnasse,15,5,10,48.841739161231,2.3315522167367,2026-03-24 15:57:02.137347
31708,Noisy le Sec - Jean-Baptiste Clément,22,22,0,48.874515389637,2.4152836203575,2026-03-24 15:57:02.137347
27004,Gare de la Garenne-Colombes,28,26,1,48.909752,2.239145,2026-03-24 15:57:02.137347
31029,Vincennes - François Debergue,24,24,0,48.857497590947,2.4375258284792,2026-03-24 15:57:02.137347
15103,Cauchy - Cévennes,51,7,44,48.843372571022,2.2751328349113,2026-03-24 15:57:02.137347
10013,Alibert - Jemmapes,60,37,22,48.871044051984,2.3661044619878,2026-03-24 15:57:02.137347
15026,Bir Hakeim,33,11,21,48.853844054334,2.289705348222,2026-03-24 15:57:02.137347
1022,Danielle Casanova - Place Vendôme,37,1,34,48.868266498223,2.3304839059711,2026-03-24 15:57:02.137347
41301,Bois de Vincennes - Gare,50,37,12,48.836022242887,2.470833995083,2026-03-24 15:57:02.137347
34014,Michelet - Dr Bauer,32,21,11,48.906125424194,2.3440374449846,2026-03-24 15:57:02.137347
23805,Suresnes - Place du Souvenir Français,16,15,0,48.847007898514,2.1941100043056,2026-03-24 15:57:02.137347
5020,Institut du Monde Arabe - Saint-Germain,40,1,39,48.849063299501,2.3558086529374,2026-03-24 15:57:02.137347
30001,Hôtel de Ville - Adrienne Bolland,33,24,9,48.905280057722,2.4455443018674,2026-03-24 15:57:02.137347
34015,Louis Dain - Rosiers,35,27,5,48.904676215771,2.3379541963343,2026-03-24 15:57:02.137347
32001,Proudhon - Président Wilson,30,21,8,48.906442763495,2.3584905266762,2026-03-24 15:57:02.137347
13123,BNF - Bibliothèque Nationale de France,42,1,50,48.8350268238,2.3760157451034,2026-03-24 15:57:02.137347
32012,Carrefour Pleyel,68,19,46,48.92034156960326,2.3438543826341625,2026-03-24 15:57:02.137347
43101,Adrien Raynal - Verger,30,12,18,48.743385629116,2.4025604826094,2026-03-24 15:57:02.137347
6016,Danton - Serpente,36,1,35,48.852297362582,2.3414132371545,2026-03-24 15:57:02.137347
23806,Suisses - Colonel de Rochebrune,16,14,2,48.85440659426,2.1975097137701,2026-03-24 15:57:02.137347
18014,Léon - Doudeauville,13,11,2,48.888324218452,2.3535733726386,2026-03-24 15:57:02.137347
40002,Bleuets - Bordières,19,16,3,48.802117531472,2.4543687905029,2026-03-24 15:57:02.137347
15058,Place du Moulin de Javel,45,5,43,48.84021670922,2.2716060653329,2026-03-24 15:57:02.137347
4010,Saint-Antoine Sévigné,26,3,23,48.8550222,2.3612322,2026-03-24 15:57:02.137347
15204,Square Bela Bartok,24,3,21,48.850984480382,2.2844360220351,2026-03-24 15:57:02.137347
12127,Tremblay - Lac des Minimes,48,3,74,48.834131261494,2.4547516554594,2026-03-24 15:57:02.137347
8002,Gare Saint-Lazare - Cour du Havre,45,5,38,48.875674400851,2.3265598341823,2026-03-24 15:57:02.137347
18043,Clichy - Place Blanche,20,17,1,48.883601088297,2.3332237824798,2026-03-24 15:57:02.137347
19018,Cité de la Musique,60,53,6,48.888796556487,2.3925811931922,2026-03-24 15:57:02.137347
16107,Benjamin Godard - Victor Hugo,35,27,8,48.865983,2.275725,2026-03-24 15:57:02.137347
40001,Hôpital Mondor,28,22,6,48.798922410229,2.4537451531298,2026-03-24 15:57:02.137347
32304,Charcot - Benfleet,28,22,6,48.878370277021,2.440523876268,2026-03-24 15:57:02.137347
9020,Toudouze - Clauzel,21,19,0,48.87929591733507,2.3373600840568547,2026-03-24 15:57:02.137347
32017,Basilique,22,12,10,48.93626891059109,2.3588666820200914,2026-03-24 15:57:02.137347
8026,Messine - Place Du Pérou,12,0,11,48.875448033960744,2.315508019010038,2026-03-24 15:57:02.137347
7002,Vaneau - Sèvres,35,21,10,48.848563233059,2.3204218259346,2026-03-24 15:57:02.137347
5110,Lacépède - Monge,23,10,12,48.84389286531899,2.3519663885235786,2026-03-24 15:57:02.137347
6108,Saint-Romain - Cherche-Midi,17,13,4,48.84708159081946,2.321374788880348,2026-03-24 15:57:02.137347
33006,André Karman - République,31,20,7,48.91039875761846,2.3851355910301213,2026-03-24 15:57:02.137347
42016,Pierre et Marie Curie - Maurice Thorez,27,24,2,48.81580226360801,2.376804985105991,2026-03-24 15:57:02.137347
25006,Place Nelson Mandela,22,21,1,48.862453313908,2.1961666225454,2026-03-24 15:57:02.137347
40011,Bas du Mont-Mesly,27,0,27,48.779751,2.460837,2026-03-24 15:57:02.137347
7003,Square Boucicaut,60,8,50,48.851296433665276,2.325061820447445,2026-03-24 15:57:02.137347
11025,Froment - Bréguet,43,3,37,48.8570414504784,2.37289470306807,2026-03-24 15:57:02.137347
12109,Mairie du 12ème,30,22,5,48.840855311763,2.3875549435616,2026-03-24 15:57:02.137347
15202,Bracion - Périphérique,30,23,7,48.826103771275,2.3004549373748,2026-03-24 15:57:02.137347
13007,Le Brun - Gobelins,48,44,4,48.835092787824,2.3534681351338,2026-03-24 15:57:02.137347
31024,Romainville - Vaillant-Couturier,38,32,5,48.86785,2.446748,2026-03-24 15:57:02.137347
19033,Cambrai - Benjamin Constant,43,28,14,48.89594736851349,2.381133802246315,2026-03-24 15:57:02.137347
17025,Chazelles - Courcelles,35,30,4,48.879406604954,2.3034455627202988,2026-03-24 15:57:02.137347
21326,Moulin de Pierre - Abbé Grégoire,20,17,3,48.822036188382,2.2754641655975,2026-03-24 15:57:02.137347
20143,Ramponeau - Belleville,44,39,3,48.871031137596,2.379056852114,2026-03-24 15:57:02.137347
43002,Lagny - Victor Basch,26,5,21,48.84884147189881,2.426325418925233,2026-03-24 15:57:02.137347
16138,Saint-Cloud - Hippodrome,30,9,21,48.85772148887421,2.2549109905958176,2026-03-24 15:57:02.137347
22207,Rond-point du Dr Albert Schweitzer,22,22,0,48.78980918988166,2.3143940046429634,2026-03-24 15:57:02.137347
92002,Théâtre des Amandiers - Palais des sports,23,6,17,48.892648526839,2.2136941552162,2026-03-24 15:57:02.137347
17048,De Toqueville - Terrasse,30,28,2,48.882428,2.314002,2026-03-24 15:57:02.137347
44010,8 Mai 1945 - 10 Juillet 1940,30,13,16,48.784567029674,2.3979035764933,2026-03-24 15:57:02.137347
2017,Caire - Dussoubs,40,3,36,48.86785342111862,2.349364310503006,2026-03-24 15:57:02.137347
9008,Tour d'Auvergne - Rodier,17,12,4,48.879161,2.343698,2026-03-24 15:57:02.137347
13118,Regnault - Patay,63,21,40,48.82435782216384,2.377065159380436,2026-03-24 15:57:02.137347
40016,Sarrazins - Saussure,22,7,14,48.769626617432,2.4717841148376,2026-03-24 15:57:02.137347
18111,Félix Ziem - Armand Gauthier,25,23,1,48.88949630486821,2.333393658804396,2026-03-24 15:57:02.137347
9002,Abbeville - Faubourg Poissonnière,14,9,3,48.879223,2.349147,2026-03-24 15:57:02.137347
48003,Youri Gagarine - Karl Marx,22,7,15,48.78448485079149,2.35908430069685,2026-03-24 15:57:02.137347
16110,Octave Feuillet - Albéric Magnard,21,21,0,48.86106902949534,2.2730283066630363,2026-03-24 15:57:02.137347
44015,Rouget de L'isle - Watteau,20,12,8,48.778192750803,2.3963020229163,2026-03-24 15:57:02.137347
43009,Place Jean-Spire-Lemaître,50,42,8,48.8468428626593,2.452062070369721,2026-03-24 15:57:02.137347
9001,Bellefond - Poissonnière,17,17,0,48.87759897050706,2.348463758826256,2026-03-24 15:57:02.137347
17032,Jean Oestreicher - Porte de Champerret,21,5,16,48.88655580065981,2.288640439510346,2026-03-24 15:57:02.137347
12031,Gabriel Lamé,36,3,32,48.8351212784276,2.385534569621086,2026-03-24 15:57:02.137347
1001,Quai de l'Horloge - Pont Neuf,17,4,13,48.857058739111,2.3417982839439,2026-03-24 15:57:02.137347
5022,Boulangers - Cardinal Lemoine,20,1,18,48.8462904,2.3521495,2026-03-24 15:57:02.137347
21328,Verger - Colonel Guichard,29,26,1,48.816376985087,2.2670380088932,2026-03-24 15:57:02.137347
19207,Jean Jaurès - Bouret,32,28,4,48.883144703938,2.3712364995651,2026-03-24 15:57:02.137347
13104,Gare d'Austerlitz - Quai Saint-Bernard,27,7,18,48.84369030864,2.3657163977623,2026-03-24 15:57:02.137347
8009,Gare Saint-Lazare - Isly,27,0,26,48.874777677621296,2.326515804784655,2026-03-24 15:57:02.137347
31103,Gare Rosny-Bois-Perrier,35,19,12,48.88115023337061,2.480436824262142,2026-03-24 15:57:02.137347
17008,Porte Pouchet-Bessières,23,17,6,48.8978765,2.3230632,2026-03-24 15:57:02.137347
7018,Ségur - d'Estrées,19,5,14,48.851419978983,2.3097044974566,2026-03-24 15:57:02.137347
31706,Château - République,26,21,3,48.862923800596,2.4155035614967,2026-03-24 15:57:02.137347
22409,Henri Barbusse - Stalingrad,16,12,3,48.814183748660554,2.2872862592339516,2026-03-24 15:57:02.137347
19015,Thionville - Ourcq,24,20,4,48.88917613743794,2.3833653330802917,2026-03-24 15:57:02.137347
9022,Rossini - Laffitte,33,3,29,48.87334627510507,2.337980867701675,2026-03-24 15:57:02.137347
26003,Argenteuil - Voltaire,16,14,0,48.918648659556,2.281411215663,2026-03-24 15:57:02.137347
12151,Gare de Lyon - Place Louis Armand,60,36,22,48.845515089794,2.3726498446286,2026-03-24 15:57:02.137347
92007,Pesaro - Préfecture,22,5,17,48.89577046284005,2.223908342421055,2026-03-24 15:57:02.137347
16026,Ranelagh - Mozart,23,20,2,48.8554439,2.2704418,2026-03-24 15:57:02.137347
9028,Moncey - Blanche,17,9,7,48.88006587474148,2.3310810327529907,2026-03-24 15:57:02.137347
10107,Gare du Nord - Hôpital Lariboisière,49,40,4,48.881949,2.352339,2026-03-24 15:57:02.137347
17043,Belidor - Gouvion-Saint-Cyr,39,31,8,48.88022154052015,2.2854680567979813,2026-03-24 15:57:02.137347
12111,Claude Decaen - Cannebière,45,38,7,48.83761417037952,2.397253782195704,2026-03-24 15:57:02.137347
11047,Amelot - Saint-Sébastien,30,7,23,48.861142162761,2.3677996181077,2026-03-24 15:57:02.137347
19043,Delphine Seyrig - Général Leclerc,53,43,7,48.893923963057865,2.39790290594101,2026-03-24 15:57:02.137347
5032,Panthéon - Valette,51,7,44,48.847020571652,2.3464982619671,2026-03-24 15:57:02.137347
18107,Chartres - La Charbonnière,34,31,1,48.8847601,2.3534657,2026-03-24 15:57:02.137347
15067,Desaix - Edgar Faure,12,2,8,48.852804604940296,2.293077029857222,2026-03-24 15:57:02.137347
6006,Notre-Dame-des-Champs - Stanislas,19,11,8,48.84479928858768,2.329337755887181,2026-03-24 15:57:02.137347
8045,Place de la Reine Astrid,58,8,49,48.864920982538,2.3025491823859,2026-03-24 15:57:02.272474
19103,Manin - Carrières d'Amérique,20,19,0,48.884672142095,2.3919698596001,2026-03-24 15:57:02.272474
17203,Place de la Porte de Champeret,28,9,18,48.886062068226,2.2917001576821,2026-03-24 15:57:02.272474
5203,Victor Cousin - Cujas,19,2,17,48.847909849567,2.3424898070094,2026-03-24 15:57:02.272474
14124,David Weill - Parc Montsouris,22,19,3,48.821092374256104,2.333725690841675,2026-03-24 15:57:02.272474
15133,Saint Lambert - Blomet,27,20,7,48.83659148147257,2.2930556908249855,2026-03-24 15:57:02.272474
21006,Marcelin Berthelot,27,17,10,48.8415473058801,2.233161628246308,2026-03-24 15:57:02.272474
44003,Gabriel Péri - Danielle Casanova,20,6,13,48.790114,2.4025777,2026-03-24 15:57:02.272474
15034,Lakanal - Commerce,53,40,11,48.84442462786544,2.294059172272682,2026-03-24 15:57:02.272474
5028,Censier - Jardin des Plantes,28,2,25,48.84107178161383,2.355475388467312,2026-03-24 15:57:02.272474
48010,Karl Marx,16,11,4,48.784527937293184,2.3646667979455587,2026-03-24 15:57:02.272474
22203,Tertres - Fontaine,28,27,1,48.787553654715644,2.306235730648041,2026-03-24 15:57:02.272474
1119,Cossonnerie - Sébastopol,24,0,23,48.86132665908402,2.349419631063938,2026-03-24 15:57:02.272474
20115,Louis Lumière - Porte de Bagnolet,20,19,0,48.86431136,2.4105210229754,2026-03-24 15:57:02.272474
35020,Marcelle - Thalie,20,18,2,48.8835462,2.4137883,2026-03-24 15:57:02.272474
22402,Jean Jaurès - Salvador Allende,43,36,7,48.821475594736775,2.3026576638221745,2026-03-24 15:57:02.272474
4201,Quai des Célestins - Henri IV,12,8,4,48.851290697625,2.3624387532495,2026-03-24 15:57:02.272474
11026,Chemin Vert - Saint-Maur,45,36,9,48.86112461407359,2.381299026310444,2026-03-24 15:57:02.272474
32604,Square du Théâtre du Garde-Chasse,50,43,3,48.881287375060616,2.420119643211365,2026-03-24 15:57:02.272474
19024,Botzaris - Parc des Buttes Chaumont,20,18,2,48.877951,2.381464,2026-03-24 15:57:02.272474
41601,Général De Gaulle - Alouette,26,13,11,48.839109,2.4175664,2026-03-24 15:57:02.272474
15021,Joseph Liouville - Croix Nivert,64,50,12,48.844835471244416,2.297508493065834,2026-03-24 15:57:02.272474
9010,Rochechouart lamartine,24,15,7,48.876719895109,2.344393021854,2026-03-24 15:57:02.272474
18028,Championnet - Vauvenargues,33,29,2,48.89401874744574,2.3319872841238976,2026-03-24 15:57:02.272474
17033,Carnot - Général Lanrezac,30,27,3,48.875443870736,2.2938242935036,2026-03-24 15:57:02.272474
17125,Marie-Georges Picquart - Pereire,32,27,4,48.88863669349711,2.3111706599593163,2026-03-24 15:57:02.272474
43005,Gare RER de Vincennes,51,28,21,48.847563015126106,2.433383166790009,2026-03-24 15:57:02.272474
16136,Théophile Gautier - François Millet,30,15,15,48.85034821320644,2.273029983043671,2026-03-24 15:57:02.272474
21701,Larmeroux - Baudelaire,29,22,6,48.816939911292,2.2809894804846,2026-03-24 15:57:02.272474
11024,Mairie du 11ème,51,44,6,48.858925,2.3789759,2026-03-24 15:57:02.272474
19022,Marché Secrétan,26,21,5,48.88125496379482,2.373463287949562,2026-03-24 15:57:02.272474
13050,Quai Panhard et Levassor,57,2,55,48.828374828097,2.3842737458056,2026-03-24 15:57:02.272474
11105,Parmentier - République,50,41,7,48.8644954,2.3750124,2026-03-24 15:57:02.272474
20134,Lieutenant Chauré - Etienne Marey,20,19,1,48.86746195408435,2.405970990657807,2026-03-24 15:57:02.272474
22016,Charles de Gaulle - Sablonville,26,20,4,48.87991924860035,2.2763770446181297,2026-03-24 15:57:02.272474
14136,Auguste Cain - Jean Moulin,40,38,2,48.82577028927573,2.3210415244102482,2026-03-24 15:57:02.272474
42010,Mairie d'Ivry-sur-Seine,53,25,27,48.81057120969284,2.3842826485633855,2026-03-24 15:57:02.272474
15046,Parc Georges Brassens - Brancion,29,23,6,48.83227829269761,2.3022570088505745,2026-03-24 15:57:02.272474
46001,Place Paul Eluard,19,11,8,48.7672039733195,2.4144977331161503,2026-03-24 15:57:02.272474
16040,Exelmans - Michel-Ange,33,19,13,48.84309486651855,2.2597770800669053,2026-03-24 15:57:02.272474
17028,Reims - Raymond Pitet,37,22,15,48.8888,2.296319,2026-03-24 15:57:02.272474
32003,Wilson - Métallurgie,28,22,4,48.909423010092326,2.3584435880184174,2026-03-24 15:57:02.272474
21104,Madame de Sanzillon - Mozart,22,6,15,48.90379820774301,2.3187401890754704,2026-03-24 15:57:02.272474
12204,Prague - Théophile Roussel,34,0,33,48.850330563516,2.3758223011125,2026-03-24 15:57:02.272474
20121,Boyer - Ménilmontant,19,18,1,48.868895162679,2.3919824145635,2026-03-24 15:57:02.272474
19013,Laumière - Petit,34,29,5,48.88467368538326,2.380039058625698,2026-03-24 15:57:02.272474
8050,Boétie - Ponthieu,45,6,37,48.871417284355,2.3076787590981,2026-03-24 15:57:02.272474
20111,Villiers de l'Isle Adam - Pyrénées,20,18,2,48.867362,2.396222,2026-03-24 15:57:02.272474
20043,Charonne - Avron,27,25,1,48.851602665222,2.3984030470379,2026-03-24 15:57:02.272474
31010,Stalingrad - Désiré Chevalier,42,39,3,48.85670169739857,2.445072233676911,2026-03-24 15:57:02.272474
18201,Tristan Tzara -  Tchaïkovski,33,31,2,48.89490221746837,2.3648490384221077,2026-03-24 15:57:02.272474
41402,Victor Hugo - Ecoles,25,14,11,48.80476007936134,2.4180373930262093,2026-03-24 15:57:02.272474
51004,Général Delambre - Prebuard,29,19,10,48.93870344444,2.2234171606307,2026-03-24 15:57:02.272474
18012,Stephenson - Doudeauville,36,32,4,48.888537048944826,2.3561610281467438,2026-03-24 15:57:02.272474
14036,Boulard - Daguerre,45,42,3,48.83446472680611,2.3293386027216907,2026-03-24 15:57:02.272474
5123,Saint-Germain - Thenard,31,0,30,48.850571,2.3471015,2026-03-24 15:57:02.272474
23009,Anatole France - Louise Michel,50,23,26,48.88873214926474,2.2881576418876652,2026-03-24 15:57:02.272474
42029,Stalingrad - Germaine Tailleferre,28,25,1,48.80257200481316,2.3786691203713417,2026-03-24 15:57:02.272474
8035,Bienfaisance - Place de Narvik,36,9,26,48.87660163459077,2.3129771277308464,2026-03-24 15:57:02.272474
17102,Alfred Roll - Berthier,28,26,2,48.887808570529,2.3000952981763,2026-03-24 15:57:02.272474
28001,Richard Wallace - Place du 8 Mai 1945,30,18,8,48.87866794788021,2.2420343756675725,2026-03-24 15:57:02.272474
18110,Departement - Pajol,19,16,3,48.886674849730184,2.3613611608743668,2026-03-24 15:57:02.272474
19005,Flandre - Riquet,21,16,3,48.888013281448,2.3737595955229,2026-03-24 15:57:02.272474
10113,Parmentier - Hôpital Saint-Louis,43,34,8,48.871379874257,2.3698963836667,2026-03-24 15:57:02.272474
41606,Pasteur - Gambetta,19,4,14,48.84572797384512,2.4236011505126953,2026-03-24 15:57:02.272474
43402,Place de Verdun,40,25,13,48.8202823,2.473775,2026-03-24 15:57:02.272474
33018,Edouard Poisson - Victor Hugo,30,16,8,48.91118557052621,2.379864752692811,2026-03-24 15:57:02.272474
12013,Montgallet - Reuilly,15,12,2,48.844291,2.3896481,2026-03-24 15:57:02.272474
16111,Faustin Hélie - Desbordes-Valmore,33,29,3,48.859403,2.276522,2026-03-24 15:57:02.272474
11007,Jean Macé - Faidherbe,78,62,14,48.85337548426,2.3828620836139,2026-03-24 15:57:02.272474
5021,Jussieu - Fossés Saint-Bernard,39,3,32,48.847185510023,2.3534858599305,2026-03-24 15:57:02.272474
6013,Jacques Callot - Mazarine,28,0,28,48.855280175332,2.3375743255019,2026-03-24 15:57:02.272474
12115,Porte de Vincennes,33,22,11,48.846454,2.415514,2026-03-24 15:57:02.272474
21305,Place Jacques Madaule,25,7,18,48.823933787309,2.2606918215752,2026-03-24 15:57:02.272474
18204,Porte de la Chapelle - Boulevard Ney,52,39,13,48.900097357789,2.3586005020149,2026-03-24 15:57:02.272474
8033,Commandant Rivière,42,1,41,48.872933,2.309796,2026-03-24 15:57:02.272474
41102,Gare de Laplace,43,40,1,48.80893199114179,2.3349460959434514,2026-03-24 15:57:02.272474
17037,Bayen - Pereire,22,16,5,48.881804409079656,2.2921088710427284,2026-03-24 15:57:02.272474
18141,Clignancourt - Sofia,19,8,6,48.88511992309783,2.34719488842051,2026-03-24 15:57:02.272474
16124,Route de Sèvres - Porte de Bagatelle,66,40,21,48.87525984132485,2.249415814876557,2026-03-24 15:57:02.272474
33003,Bordier - Félix Faure,48,37,10,48.90390751882016,2.3830059170722966,2026-03-24 15:57:02.272474
33009,Félix Faure - Sadi Carnot,33,24,9,48.90812110228388,2.378623187541962,2026-03-24 15:57:02.272474
15033,Place Violet,45,27,16,48.844878938365,2.2905756533146,2026-03-24 15:57:02.272474
25005,18 juin 1940 - Buzenval,25,22,3,48.868807,2.185428,2026-03-24 15:57:02.272474
22505,Mairie de La Garenne Colombes,22,19,3,48.90663823468682,2.24679596722126,2026-03-24 15:57:02.272474
14034,Ouest - Château,41,39,2,48.83617286014242,2.319392143923804,2026-03-24 15:57:02.272474
25008,Place du 8 Mai 1945,18,16,2,48.871552174017,2.2025031970585,2026-03-24 15:57:02.272474
33001,Victor Hugo - Magasins Généraux,34,15,19,48.903281401126755,2.368072383105755,2026-03-24 15:57:02.272474
16034,Porte d'Auteuil,33,29,4,48.8479394142243,2.2608396783471107,2026-03-24 15:57:02.272474
11036,Jules Ferry - Faubourg du Temple Paris,58,32,26,48.868397,2.3678933,2026-03-24 15:57:02.272474
14117,Gare Montparnasse - René Mouchotte,41,37,2,48.839203843292,2.3208839446306,2026-03-24 15:57:02.272474
20132,Réunion - Avron,26,25,1,48.852566752033766,2.403928068708116,2026-03-24 15:57:02.272474
92003,Chanzy - Sud-Est,25,22,2,48.888912037698766,2.195632159709931,2026-03-24 15:57:02.272474
35009,Jean Lolive - Parc Stalingrad,22,21,0,48.89206174403158,2.4091735482215886,2026-03-24 15:57:02.272474
10206,René Boulanger - Lancry,33,16,16,48.868769331741,2.3598745346052,2026-03-24 15:57:02.272474
27002,Parc Pierre Lagravère,30,4,23,48.92650488131725,2.239069678491417,2026-03-24 15:57:02.272474
21109,Guichet - Jean Jaurès,28,26,2,48.905169868129036,2.3023840785026555,2026-03-24 15:57:02.272474
23701,Parvis Robert Schuman - Roger Salengro,24,20,4,48.812657470558754,2.1921751275658607,2026-03-24 15:57:02.272474
17007,Navier - Epinettes,54,52,2,48.89587780769155,2.3226776719093327,2026-03-24 15:57:02.272474
31012,Place Carnot,25,24,1,48.85593932186797,2.441531717777252,2026-03-24 15:57:02.272474
18141,Clignancourt - Sofia,19,9,5,48.88511992309783,2.34719488842051,2026-03-24 15:57:02.420735
33003,Bordier - Félix Faure,48,37,10,48.90390751882016,2.3830059170722966,2026-03-24 15:57:02.420735
33009,Félix Faure - Sadi Carnot,33,24,9,48.90812110228388,2.378623187541962,2026-03-24 15:57:02.420735
25005,18 juin 1940 - Buzenval,25,22,3,48.868807,2.185428,2026-03-24 15:57:02.420735
22505,Mairie de La Garenne Colombes,22,19,3,48.90663823468682,2.24679596722126,2026-03-24 15:57:02.420735
14034,Ouest - Château,41,39,2,48.83617286014242,2.319392143923804,2026-03-24 15:57:02.420735
25008,Place du 8 Mai 1945,18,16,2,48.871552174017,2.2025031970585,2026-03-24 15:57:02.420735
33001,Victor Hugo - Magasins Généraux,34,15,19,48.903281401126755,2.368072383105755,2026-03-24 15:57:02.420735
16034,Porte d'Auteuil,33,29,4,48.8479394142243,2.2608396783471107,2026-03-24 15:57:02.420735
11036,Jules Ferry - Faubourg du Temple Paris,58,32,26,48.868397,2.3678933,2026-03-24 15:57:02.420735
14117,Gare Montparnasse - René Mouchotte,41,37,2,48.839203843292,2.3208839446306,2026-03-24 15:57:02.420735
20132,Réunion - Avron,26,25,1,48.852566752033766,2.403928068708116,2026-03-24 15:57:02.420735
92003,Chanzy - Sud-Est,25,22,2,48.888912037698766,2.195632159709931,2026-03-24 15:57:02.420735
35009,Jean Lolive - Parc Stalingrad,22,21,0,48.89206174403158,2.4091735482215886,2026-03-24 15:57:02.420735
10206,René Boulanger - Lancry,33,16,16,48.868769331741,2.3598745346052,2026-03-24 15:57:02.420735
21109,Guichet - Jean Jaurès,28,26,2,48.905169868129036,2.3023840785026555,2026-03-24 15:57:02.420735
23701,Parvis Robert Schuman - Roger Salengro,24,20,4,48.812657470558754,2.1921751275658607,2026-03-24 15:57:02.420735
31012,Place Carnot,25,24,1,48.85593932186797,2.441531717777252,2026-03-24 15:57:02.420735
16129,Ceinture du Lac Inferieure - Saint-Cloud,42,30,11,48.86218070933143,2.2617871686816216,2026-03-24 15:57:02.420735
35019,Anatole France - Jean Lolive,28,11,12,48.8949922,2.4253764,2026-03-24 15:57:02.420735
14104,Boyer-Barret - Raymond Losserand,23,20,3,48.83329880233322,2.3173383995890617,2026-03-24 15:57:02.420735
20119,Square des Saint-Simoniens,25,24,1,48.8701796,2.3967273,2026-03-24 15:57:02.420735
31705,Champeaux - Gallieni,50,49,1,48.864459134684644,2.4161778017878532,2026-03-24 15:57:02.420735
6030,Assas - Vaugirard,35,6,27,48.848274111398,2.3292413726449,2026-03-24 15:57:02.420735
12126,Gravelle - Route du Bac,51,47,2,48.824407,2.418455,2026-03-24 15:57:02.420735
41604,Lagny - Joffre,31,17,14,48.84930687084088,2.417949736118317,2026-03-24 15:57:02.420735
15029,Emeriau - Place de Brazzaville,51,9,41,48.850785261674964,2.2871585190296173,2026-03-24 15:57:02.420735
18005,Tardieu - Chappe,18,15,2,48.884146759782,2.341845408082,2026-03-24 15:57:02.420735
8102,Lamennais - Washington,40,18,21,48.873529900265,2.303444892168,2026-03-24 15:57:02.420735
18020,Francoeur - Marcadet,20,17,3,48.89104123261663,2.340014585442034,2026-03-24 15:57:02.420735
20136,Henri Chevreau - Couronnes,27,25,2,48.87033205312931,2.388777695596218,2026-03-24 15:57:02.420735
15028,Grenelle - Dr Finlay,71,9,58,48.851315406715976,2.2919502854347233,2026-03-24 15:57:02.420735
21013,Pierre Grenier - Pont de Billancourt,21,13,8,48.8258020742942,2.2487989068031315,2026-03-24 15:57:02.420735
42503,Vladimir Ilitch Lénine - Andrée Chedid,31,31,0,48.813240124373,2.3319716067039,2026-03-24 15:57:02.420735
2010,Uzès - Montmartre,29,3,26,48.870790980240706,2.3431010171771054,2026-03-24 15:57:02.420735
5116,Place Valhubert,51,16,33,48.844182577315,2.3640366643667,2026-03-24 15:57:02.420735
22508,Château -République,17,11,5,48.905905048494,2.2534525632894,2026-03-24 15:57:02.420735
20040,Parc de Belleville - Julien Lacroix,26,25,1,48.8703459,2.3842214,2026-03-24 15:57:02.420735
17017,Gare de Pont-Cardinet,34,26,4,48.88713901475306,2.314494143994255,2026-03-24 15:57:02.420735
10023,Gare de l'Est - Verdun,14,10,4,48.876156054271,2.3609149083206,2026-03-24 15:57:02.420735
13026,Place Jean Delay,35,33,2,48.823316,2.354336,2026-03-24 15:57:02.420735
23002,Pont de Levallois-bécon,50,5,45,48.8984179,2.2791311,2026-03-24 15:57:02.420735
13102,Pitié-Salpêtrière,51,3,47,48.83748810318667,2.365213818848133,2026-03-24 15:57:02.420735
10204,Dunkerque - Maubeuge,35,30,3,48.880432768947,2.3528900992907,2026-03-24 15:57:02.420735
15055,Vasco de Gama,54,34,20,48.83671783466264,2.283664085650799,2026-03-24 15:57:02.420735
41207,Place du Général de Gaulle,28,15,10,48.8525288,2.4877332,2026-03-24 15:57:02.420735
12011,Charenton - Place du Col Bourgoin,35,17,17,48.844867319554,2.3825789350545,2026-03-24 15:57:02.420735
21308,Bara - Henri Farman,58,13,44,48.833218027457846,2.2677567601203923,2026-03-24 15:57:02.420735
12032,Porte Dorée,36,23,13,48.8354337,2.4077132,2026-03-24 15:57:02.420735
19037,Belleville - Porte des Lilas,32,32,0,48.87660391892763,2.404769691129476,2026-03-24 15:57:02.420735
15038,Place Adolphe Cherioux - Vaugirard,63,58,3,48.83959442800459,2.3010657727718353,2026-03-24 15:57:02.420735
7005,Raspail - Bac,52,9,43,48.855628721101,2.3256602883339,2026-03-24 15:57:02.420735
21019,Edouard Vaillant - Paul-Adolphe Souriau,28,6,22,48.834845858829,2.2479459643364,2026-03-24 15:57:02.420735
18032,Porte de Clignancourt.,56,48,7,48.897488,2.343996,2026-03-24 15:57:02.420735
17027,Place du Maréchal Juin - Péreire,46,44,2,48.885263,2.298286,2026-03-24 15:57:02.420735
31016,Lucie Aubrac - Franklin,36,32,3,48.86223916006812,2.4435862898826604,2026-03-24 15:57:02.420735
51003,Hôtel de Ville d'Argenteuil,30,20,9,48.946504,2.2496396,2026-03-24 15:57:02.420735
13016,Primo Levi - Frigos,34,3,31,48.83094844846017,2.37965351592796,2026-03-24 15:57:02.420735
13043,Dunois - Clisson,51,3,47,48.832294,2.3674523,2026-03-24 15:57:02.420735
19039,Edouard Pailleron - Simon Bolivar,24,23,1,48.87979886049996,2.374839261174202,2026-03-24 15:57:02.420735
22001,Château - Bineau,23,5,17,48.890404028589806,2.270106375217438,2026-03-24 15:57:02.420735
9023,Laffitte - Italiens,33,1,30,48.871815737396,2.3372015478451,2026-03-24 15:57:02.420735
14122,Colonel Monteil - Brune,19,12,5,48.82650293311,2.3092747998272,2026-03-24 15:57:02.420735
16123,Mahatma Gandhi,26,10,15,48.876356,2.264205,2026-03-24 15:57:02.420735
8051,Batignolles - Rome,15,8,4,48.881823370567,2.3202589899302,2026-03-24 15:57:02.420735
20023,Pelleport - Belgrand,15,14,1,48.865000818477,2.4039808363775,2026-03-24 15:57:02.420735
41204,République - Danton,20,17,3,48.85249172181667,2.462034523487091,2026-03-24 15:57:02.420735
17121,Square des Epinettes,20,18,1,48.89383909781389,2.325953990221024,2026-03-24 15:57:02.420735
19009,Cité des Sciences et de l'Industrie,30,24,5,48.89659571178903,2.384599149227142,2026-03-24 15:57:02.420735
18109,Pajol - Riquet,47,45,2,48.88960028134536,2.3628534749150276,2026-03-24 15:57:02.420735
19038,Lassus - Delouvain,20,20,0,48.8755044846,2.3890327325519,2026-03-24 15:57:02.420735
21703,Square du Carrefour de l'Insurrection,23,21,2,48.820864559770676,2.291113436222077,2026-03-24 15:57:02.420735
35017,Toffier Decaux - Cartier Bresson,18,6,12,48.90165072551549,2.4017545580863957,2026-03-24 15:57:02.420735
9031,Provence - Chaussée d'Antin,25,1,24,48.87428447542072,2.332976511564311,2026-03-24 15:57:02.420735
15035,Place Etienne Pernet,43,32,10,48.84243457133779,2.2921819612383847,2026-03-24 15:57:02.420735
18049,Porte d'Aubervilliers,55,41,11,48.89859661942376,2.3689722642302513,2026-03-24 15:57:02.420735
34010,Hôtel de Ville de Saint-Ouen,48,33,13,48.911380185786,2.3340076807601,2026-03-24 15:57:02.420735
92004,Nanterre - Université,20,1,18,48.901365,2.212693,2026-03-24 15:57:02.420735
11041,Square Saint-Ambroise,43,37,5,48.860934,2.375841,2026-03-24 15:57:02.420735
47005,Ecole Vétérinaire,36,14,22,48.81488859822486,2.4224362157778994,2026-03-24 15:57:02.420735
17040,Pereire - Ternes,48,41,7,48.87973954830735,2.288012132048607,2026-03-24 15:57:02.420735
14112,Méchain - Faubourg Saint-Jacques,16,13,3,48.83586772099485,2.33798034198275,2026-03-24 15:57:02.420735
47004,Stade Auguste Delaune,21,16,5,48.80896378683884,2.4345204234123234,2026-03-24 15:57:02.420735
21001,Transvaal - Charles de Gaulle,27,13,13,48.848280403628806,2.2373420120857195,2026-03-24 15:57:02.420735
18033,Belliard - Damrémont,34,31,1,48.89669238777841,2.338023450388167,2026-03-24 15:57:02.420735
21310,Kléber - Gouverneur Général Eboué,24,0,23,48.826885843069796,2.2723413258790965,2026-03-24 15:57:02.420735
20016,Pyrénées - Maraîchers,33,32,1,48.85714001395299,2.4043509364128113,2026-03-24 15:57:02.420735
16043,Place de Passy,15,10,3,48.85780291711202,2.277500546942199,2026-03-24 15:57:02.420735
20116,Haies - Réunion,22,20,1,48.85386896766491,2.402426162238911,2026-03-24 15:57:02.420735
6107,Place Alphonse Deville,23,8,14,48.850188262662,2.3275961726904,2026-03-24 15:57:02.420735
16029,Maison de Radio - France,47,2,43,48.85132886434057,2.277785539627075,2026-03-24 15:57:02.420735
18008,Square Léon,33,33,0,48.88667396788626,2.353205569088459,2026-03-24 15:57:02.420735
7008,Villersexel - Saint-Germain,16,1,14,48.858297001218,2.3237934708595,2026-03-24 15:57:02.420735
14030,Pernety - Raymond Losserand,32,28,4,48.834254627953,2.317609339387,2026-03-24 15:57:02.420735
20201,Eugène Reisz - Davout,20,20,0,48.85631874632638,2.410396970808506,2026-03-24 15:57:02.420735
13046,Eugène Oudiné - Dessous Des Berges,44,9,34,48.8256423,2.3750226,2026-03-24 15:57:02.420735
22102,Mont Valérien - Michel Salles,24,23,1,48.8561915,2.2152966,2026-03-24 15:57:02.420735
4110,Neuve Saint-Pierre - Beautreillis,20,0,15,48.85355351439652,2.3639122769236565,2026-03-24 15:57:02.420735
6017,Sénat - Condé,33,0,31,48.84954227788459,2.337939441204071,2026-03-24 15:57:02.420735
15107,Palais des Sports,22,4,18,48.833468517426,2.2858720645308,2026-03-24 15:57:02.420735
13041,Porte d'Ivry,50,46,2,48.821768747596,2.3688706755638,2026-03-24 15:57:02.545112
4011,Hôtel de Ville - Pont-Marie,36,0,34,48.853899645527,2.3569472506642,2026-03-24 15:57:02.545112
12041,Bois de Vincennes.,60,53,7,48.8338064,2.4132221,2026-03-24 15:57:02.545112
14006,Saint-Jacques - Tombe Issoire,23,22,1,48.833206330538864,2.3369108140468597,2026-03-24 15:57:02.545112
7013,Duroc - Place de Breteuil,42,2,40,48.847460641142,2.3126140236855,2026-03-24 15:57:02.545112
10207,Charles Robin - Grange aux Belles,23,21,2,48.877376705016,2.3698456519833,2026-03-24 15:57:02.545112
21114,Gustave Eiffel - Parc des Impressionnistes,30,25,5,48.90390619651018,2.2946908324956894,2026-03-24 15:57:02.545112
42301,Gare Arcueil - Cachan,26,17,6,48.799824,2.328171,2026-03-24 15:57:02.545112
32018,Franciade - Gabriel Péri,26,16,10,48.93261499331498,2.355954498052597,2026-03-24 15:57:02.545112
18019,Square Raymond Souplex,52,48,4,48.89183721478911,2.335426103165901,2026-03-24 15:57:02.545112
11034,Parmentier - Fontaine au Roi,48,37,11,48.86787670551736,2.372705978671471,2026-03-24 15:57:02.545112
9012,Rougemont - Poissonnière,44,8,36,48.871611569354755,2.345873080193996,2026-03-24 15:57:02.545112
41206,Place des Larris,34,30,4,48.8568363,2.4780236,2026-03-24 15:57:02.545112
19031,Manin - Crimée,23,21,1,48.8831217743719,2.3863670602440834,2026-03-24 15:57:02.545112
13114,Nationale - Marcel Duchamp,23,20,3,48.82463749337136,2.3678014799952507,2026-03-24 15:57:02.545112
15061,Square Desnouettes,22,11,10,48.83476837934194,2.284142297394666,2026-03-24 15:57:02.545112
11019,Charonne - Philippe-Auguste,32,30,2,48.855603162026,2.39054639062,2026-03-24 15:57:02.545112
15063,Convention - Saint-Charles,23,20,3,48.843156111116,2.2831090539694,2026-03-24 15:57:02.545112
31018,Gambetta - Michelet,33,27,6,48.85273792380526,2.429966032505036,2026-03-24 15:57:02.545112
33005,République - Henri Barbusse,32,21,9,48.90661553626751,2.389432489871979,2026-03-24 15:57:02.545112
2110,Jeûneurs - Mulhouse,28,9,18,48.868997,2.346925,2026-03-24 15:57:02.545112
2021,Cléry - Montmartre,58,12,45,48.867458,2.3445211,2026-03-24 15:57:02.545112
14007,Ferrus - Saint-Jacques,34,31,3,48.8313878,2.3408563,2026-03-24 15:57:02.545112
